[
  {
    "id": "chiesa-di-san-francesco",
    "name": "Chiesa di San Francesco",
    "description": "",
    "category": "chiese",
    "coordinates": [
      45.159766,
      10.78712
    ],
    "visitDate": "",
    "country": "Italia",
    "region": "Lombardia",
    "province": "MN",
    "municipality": "Mantova",
    "tags": [],
    "notes": ""
  },
  {
    "id": "cattedrale-di-san-pietro-apostolo",
    "name": "Cattedrale di San Pietro Apostolo",
    "description": "",
    "category": "chiese",
    "coordinates": [
      45.16056,
      10.7975
    ],
    "visitDate": "",
    "country": "Italia",
    "region": "Lombardia",
    "province": "MN",
    "municipality": "Mantova",
    "tags": [],
    "notes": ""
  },
  {
    "id": "basilica-di-sant-andrea",
    "name": "Basilica di Sant'Andrea",
    "description": "",
    "category": "chiese",
    "coordinates": [
      45.15889,
      10.79417
    ],
    "visitDate": "",
    "country": "Italia",
    "region": "Lombardia",
    "province": "MN",
    "municipality": "Mantova",
    "tags": [],
    "notes": ""
  },
  {
    "id": "tempio-di-san-sebastiano",
    "name": "Tempio di San Sebastiano",
    "description": "",
    "category": "chiese",
    "coordinates": [
      45.15091,
      10.7882
    ],
    "visitDate": "",
    "country": "Italia",
    "region": "Lombardia",
    "province": "MN",
    "municipality": "Mantova",
    "tags": [],
    "notes": ""
  },
  {
    "id": "chiesa-di-san-barnaba",
    "name": "Chiesa di San Barnaba",
    "description": "",
    "category": "chiese",
    "coordinates": [
      45.154,
      10.7869
    ],
    "visitDate": "",
    "country": "Italia",
    "region": "Lombardia",
    "province": "MN",
    "municipality": "Mantova",
    "tags": [],
    "notes": ""
  },
  {
    "id": "chiesa-di-san-pio-x",
    "name": "Chiesa di San Pio X",
    "description": "",
    "category": "chiese",
    "coordinates": [
      45.155,
      10.79
    ],
    "visitDate": "",
    "country": "Italia",
    "region": "Lombardia",
    "province": "MN",
    "municipality": "Mantova",
    "tags": [],
    "notes": ""
  },
  {
    "id": "chiesa-di-santa-paola",
    "name": "Chiesa di Santa Paola",
    "description": "",
    "category": "chiese",
    "coordinates": [
      45.14917,
      10.79706
    ],
    "visitDate": "",
    "country": "Italia",
    "region": "Lombardia",
    "province": "MN",
    "municipality": "Mantova",
    "tags": [],
    "notes": ""
  },
  {
    "id": "parrocchia-di-sant-apollonia",
    "name": "Parrocchia di Sant'Apollonia",
    "description": "",
    "category": "chiese",
    "coordinates": [
      45.1522,
      10.79686
    ],
    "visitDate": "",
    "country": "Italia",
    "region": "Lombardia",
    "province": "MN",
    "municipality": "Mantova",
    "tags": [],
    "notes": ""
  },
  {
    "id": "chiesa-di-san-pietro-gazzuolo",
    "name": "Chiesa di San Pietro",
    "description": "",
    "category": "chiese",
    "coordinates": [
      45.07544,
      10.57689
    ],
    "visitDate": "",
    "country": "Italia",
    "region": "Lombardia",
    "province": "MN",
    "municipality": "Gazzuolo",
    "tags": [],
    "notes": ""
  },
  {
    "id": "chiesa-di-san-rocco-gazzuolo",
    "name": "Chiesa di San Rocco",
    "description": "",
    "category": "chiese",
    "coordinates": [
      45.067,
      10.583
    ],
    "visitDate": "",
    "country": "Italia",
    "region": "Lombardia",
    "province": "MN",
    "municipality": "Gazzuolo",
    "tags": [],
    "notes": ""
  },
  {
    "id": "chiesa-di-santa-maria-nascente",
    "name": "Chiesa di Santa Maria Nascente",
    "description": "",
    "category": "chiese",
    "coordinates": [
      45.06872,
      10.58155
    ],
    "visitDate": "",
    "country": "Italia",
    "region": "Lombardia",
    "province": "MN",
    "municipality": "Gazzuolo",
    "tags": [],
    "notes": ""
  },
  {
    "id": "chiesetta-di-nocegrossa",
    "name": "Chiesetta di Nocegrossa",
    "description": "",
    "category": "chiese",
    "coordinates": [
      45.067,
      10.583
    ],
    "visitDate": "",
    "country": "Italia",
    "region": "Lombardia",
    "province": "MN",
    "municipality": "Gazzuolo",
    "tags": [],
    "notes": ""
  },
  {
    "id": "chiesa-della-beata-vergine-di-loreto-gazzuolo",
    "name": "Chiesa della Beata Vergine di Loreto",
    "description": "",
    "category": "chiese",
    "coordinates": [
      45.067,
      10.583
    ],
    "visitDate": "",
    "country": "Italia",
    "region": "Lombardia",
    "province": "MN",
    "municipality": "Gazzuolo",
    "tags": [],
    "notes": ""
  },
  {
    "id": "chiesa-di-sant-albino",
    "name": "Chiesa di Sant'Albino",
    "description": "",
    "category": "chiese",
    "coordinates": [
      45.0353,
      10.54379
    ],
    "visitDate": "",
    "country": "Italia",
    "region": "Lombardia",
    "province": "MN",
    "municipality": "Commessaggio",
    "tags": [],
    "notes": ""
  },
  {
    "id": "chiesa-di-san-celestino",
    "name": "Chiesa di San Celestino",
    "description": "",
    "category": "chiese",
    "coordinates": [
      45.0875,
      10.60632
    ],
    "visitDate": "",
    "country": "Italia",
    "region": "Lombardia",
    "province": "MN",
    "municipality": "Campitello",
    "tags": [],
    "notes": ""
  },
  {
    "id": "chiesa-di-san-tommaso-apostolo",
    "name": "Chiesa di San Tommaso Apostolo",
    "description": "",
    "category": "chiese",
    "coordinates": [
      45.192,
      10.515
    ],
    "visitDate": "",
    "country": "Italia",
    "region": "Lombardia",
    "province": "MN",
    "municipality": "Acquanegra sul Chiese",
    "tags": [],
    "notes": ""
  },
  {
    "id": "chiesa-di-san-fortunato-acquanegra-sul-chiese",
    "name": "Chiesa di San Fortunato",
    "description": "",
    "category": "chiese",
    "coordinates": [
      45.192,
      10.515
    ],
    "visitDate": "",
    "country": "Italia",
    "region": "Lombardia",
    "province": "MN",
    "municipality": "Acquanegra sul Chiese",
    "tags": [],
    "notes": ""
  },
  {
    "id": "santuario-di-maria-rosa-mistica-madre-della-chiesa",
    "name": "Santuario di Maria, Rosa Mistica - Madre della Chiesa",
    "description": "",
    "category": "chiese",
    "coordinates": [
      45.414,
      10.392
    ],
    "visitDate": "",
    "country": "Italia",
    "region": "Lombardia",
    "province": "BS",
    "municipality": "Montichiari",
    "tags": [],
    "notes": ""
  },
  {
    "id": "basilica-di-santa-maria-in-ara-coeli",
    "name": "Basilica di Santa Maria in Ara Coeli",
    "description": "",
    "category": "chiese",
    "coordinates": [
      41.893889,
      12.483333
    ],
    "visitDate": "",
    "country": "Italia",
    "region": "Lazio",
    "province": "RM",
    "municipality": "Roma",
    "tags": [],
    "notes": ""
  },
  {
    "id": "basilica-di-san-giovanni-in-laterano",
    "name": "Basilica di San Giovanni in Laterano",
    "description": "",
    "category": "chiese",
    "coordinates": [
      41.88588,
      12.505673
    ],
    "visitDate": "",
    "country": "Italia",
    "region": "Lazio",
    "province": "RM",
    "municipality": "Roma",
    "tags": [],
    "notes": ""
  },
  {
    "id": "basilica-di-san-pietro",
    "name": "Basilica di San Pietro",
    "description": "",
    "category": "chiese",
    "coordinates": [
      41.902168,
      12.453937
    ],
    "visitDate": "",
    "country": "Città del Vaticano",
    "region": "",
    "province": "",
    "municipality": "Città del Vaticano",
    "tags": [],
    "notes": ""
  },
  {
    "id": "chiesa-s-maria-della-misericordia",
    "name": "Chiesa S.Maria della Misericordia",
    "description": "",
    "category": "chiese",
    "coordinates": [
      45.485,
      9.785
    ],
    "visitDate": "2013-08-02",
    "country": "Italia",
    "region": "Lombardia",
    "province": "CR",
    "municipality": "Romanengo",
    "tags": [],
    "notes": ""
  },
  {
    "id": "basilica-di-santa-croce",
    "name": "Basilica di Santa Croce",
    "description": "",
    "category": "chiese",
    "coordinates": [
      43.768,
      11.262
    ],
    "visitDate": "2016-02-18",
    "country": "Italia",
    "region": "Toscana",
    "province": "FI",
    "municipality": "Firenze",
    "tags": [],
    "notes": ""
  },
  {
    "id": "basilica-di-santa-maria-novella",
    "name": "Basilica di Santa Maria Novella",
    "description": "",
    "category": "chiese",
    "coordinates": [
      43.774,
      11.249
    ],
    "visitDate": "2016-02-18",
    "country": "Italia",
    "region": "Toscana",
    "province": "FI",
    "municipality": "Firenze",
    "tags": [],
    "notes": ""
  },
  {
    "id": "cattedrale-di-santa-maria-del-fiore",
    "name": "Cattedrale di Santa Maria del Fiore",
    "description": "",
    "category": "chiese",
    "coordinates": [
      43.773,
      11.256
    ],
    "visitDate": "2016-02-18",
    "country": "Italia",
    "region": "Toscana",
    "province": "FI",
    "municipality": "Firenze",
    "tags": [],
    "notes": ""
  },
  {
    "id": "chiesa-della-dedicazione-di-san-michele-arcangelo",
    "name": "Chiesa della Dedicazione di San Michele Arcangelo",
    "description": "",
    "category": "chiese",
    "coordinates": [
      46.158,
      11.043
    ],
    "visitDate": "2018-06-24",
    "country": "Italia",
    "region": "Trentino-Alto Adige",
    "province": "TN",
    "municipality": "Mezzolago",
    "tags": [],
    "notes": ""
  },
  {
    "id": "duomo-di-milano",
    "name": "Duomo di Milano",
    "description": "",
    "category": "chiese",
    "coordinates": [
      45.464,
      9.192
    ],
    "visitDate": "2019-10-16",
    "country": "Italia",
    "region": "Lombardia",
    "province": "MI",
    "municipality": "Milano",
    "tags": [],
    "notes": ""
  },
  {
    "id": "chiesa-di-san-nicola-da-bari",
    "name": "Chiesa di San Nicola da Bari",
    "description": "",
    "category": "chiese",
    "coordinates": [
      45.373,
      10.636
    ],
    "visitDate": "2021-05-15",
    "country": "Italia",
    "region": "Lombardia",
    "province": "MN",
    "municipality": "Castellaro Lagusello",
    "tags": [],
    "notes": ""
  },
  {
    "id": "chiesa-assunzione-di-maria-vergine",
    "name": "Chiesa Assunzione di Maria Vergine",
    "description": "",
    "category": "chiese",
    "coordinates": [
      44.476,
      10.088
    ],
    "visitDate": "2021-05-22",
    "country": "Italia",
    "region": "Emilia-Romagna",
    "province": "PR",
    "municipality": "Corniglio",
    "tags": [],
    "notes": ""
  },
  {
    "id": "santuario-di-san-francesco-da-paola",
    "name": "Santuario di San Francesco da Paola",
    "description": "",
    "category": "chiese",
    "coordinates": [
      39.359,
      16.033
    ],
    "visitDate": "2021-07-31",
    "country": "Italia",
    "region": "Calabria",
    "province": "CS",
    "municipality": "Paola",
    "tags": [],
    "notes": ""
  },
  {
    "id": "chiesa-di-san-rocco-riva-di-solto",
    "name": "Chiesa di San Rocco",
    "description": "",
    "category": "chiese",
    "coordinates": [
      45.716,
      10.069
    ],
    "visitDate": "2021-08-11",
    "country": "Italia",
    "region": "Lombardia",
    "province": "BG",
    "municipality": "Riva di Solto",
    "tags": [],
    "notes": ""
  },
  {
    "id": "chiesa-della-beata-vergine-del-rosario",
    "name": "Chiesa della Beata Vergine del Rosario",
    "description": "",
    "category": "chiese",
    "coordinates": [
      44.389,
      7.553
    ],
    "visitDate": "2022-01-02",
    "country": "Italia",
    "region": "Piemonte",
    "province": "CN",
    "municipality": "Bernezzo",
    "tags": [],
    "notes": ""
  },
  {
    "id": "chiesa-dei-ss-pietro-e-paolo",
    "name": "Chiesa Dei Ss. Pietro E Paolo",
    "description": "",
    "category": "chiese",
    "coordinates": [
      44.389,
      7.553
    ],
    "visitDate": "2022-01-02",
    "country": "Italia",
    "region": "Piemonte",
    "province": "CN",
    "municipality": "Bernezzo",
    "tags": [],
    "notes": ""
  },
  {
    "id": "chiesa-di-santa-maria-maddalena",
    "name": "Chiesa Di Santa Maria Maddalena",
    "description": "",
    "category": "chiese",
    "coordinates": [
      44.389,
      7.553
    ],
    "visitDate": "2022-01-02",
    "country": "Italia",
    "region": "Piemonte",
    "province": "CN",
    "municipality": "Bernezzo",
    "tags": [],
    "notes": ""
  },
  {
    "id": "cattedrale-di-san-nicolo",
    "name": "Cattedrale di San Nicolò",
    "description": "",
    "category": "chiese",
    "coordinates": [
      36.891,
      15.064
    ],
    "visitDate": "2022-08-07",
    "country": "Italia",
    "region": "Sicilia",
    "province": "SR",
    "municipality": "Noto",
    "tags": [],
    "notes": ""
  },
  {
    "id": "parrocchia-di-san-michele-dei-mucchietti",
    "name": "Parrocchia di San Michele dei Mucchietti",
    "description": "",
    "category": "chiese",
    "coordinates": [
      44.546,
      10.782
    ],
    "visitDate": "2022-09-24",
    "country": "Italia",
    "region": "Emilia-Romagna",
    "province": "MO",
    "municipality": "Sassuolo",
    "tags": [],
    "notes": ""
  },
  {
    "id": "chiesa-immacolata-concezione-della-bv-maria",
    "name": "Chiesa Immacolata Concezione della B.V.Maria",
    "description": "",
    "category": "chiese",
    "coordinates": [
      45.033,
      10.545
    ],
    "visitDate": "2022-10-22",
    "country": "Italia",
    "region": "Lombardia",
    "province": "MN",
    "municipality": "Montanara",
    "tags": [],
    "notes": ""
  },
  {
    "id": "tempio-di-santa-maria-della-consolazione",
    "name": "Tempio di Santa Maria della Consolazione",
    "description": "",
    "category": "chiese",
    "coordinates": [
      42.781,
      12.405
    ],
    "visitDate": "2022-12-02",
    "country": "Italia",
    "region": "Umbria",
    "province": "PG",
    "municipality": "Todi",
    "tags": [],
    "notes": ""
  },
  {
    "id": "concattedrale-della-santissima-annunziata",
    "name": "Concattedrale della Santissima Annunziata",
    "description": "",
    "category": "chiese",
    "coordinates": [
      42.781,
      12.405
    ],
    "visitDate": "2022-12-02",
    "country": "Italia",
    "region": "Umbria",
    "province": "PG",
    "municipality": "Todi",
    "tags": [],
    "notes": ""
  },
  {
    "id": "chiesa-di-san-fortunato-todi",
    "name": "Chiesa di San Fortunato",
    "description": "",
    "category": "chiese",
    "coordinates": [
      42.781,
      12.405
    ],
    "visitDate": "2022-12-02",
    "country": "Italia",
    "region": "Umbria",
    "province": "PG",
    "municipality": "Todi",
    "tags": [],
    "notes": ""
  },
  {
    "id": "cattedrale-di-san-lorenzo",
    "name": "Cattedrale di San Lorenzo",
    "description": "",
    "category": "chiese",
    "coordinates": [
      43.11,
      12.39
    ],
    "visitDate": "2022-12-03",
    "country": "Italia",
    "region": "Umbria",
    "province": "PG",
    "municipality": "Perugia",
    "tags": [],
    "notes": ""
  },
  {
    "id": "santuario-della-beata-vergine-maria",
    "name": "Santuario della Beata Vergine Maria",
    "description": "",
    "category": "chiese",
    "coordinates": [
      45.155,
      10.74
    ],
    "visitDate": "2023-08-13",
    "country": "Italia",
    "region": "Lombardia",
    "province": "MN",
    "municipality": "Grazie",
    "tags": [],
    "notes": ""
  },
  {
    "id": "chiesa-di-san-giuseppe",
    "name": "Chiesa di San Giuseppe",
    "description": "",
    "category": "chiese",
    "coordinates": [
      46.733,
      12.157
    ],
    "visitDate": "2023-08-26",
    "country": "Italia",
    "region": "Trentino-Alto Adige",
    "province": "BZ",
    "municipality": "Moso",
    "tags": [],
    "notes": ""
  },
  {
    "id": "chiesa-della-gran-madre-di-dio",
    "name": "Chiesa Della Gran Madre di Dio",
    "description": "",
    "category": "chiese",
    "coordinates": [
      45.062,
      7.695
    ],
    "visitDate": "2023-11-15",
    "country": "Italia",
    "region": "Piemonte",
    "province": "TO",
    "municipality": "Torino",
    "tags": [],
    "notes": ""
  },
  {
    "id": "chiesa-di-santa-maria-del-monte-dei-cappuccini",
    "name": "Chiesa di Santa Maria del Monte dei Cappuccini",
    "description": "",
    "category": "chiese",
    "coordinates": [
      45.062,
      7.695
    ],
    "visitDate": "2023-11-15",
    "country": "Italia",
    "region": "Piemonte",
    "province": "TO",
    "municipality": "Torino",
    "tags": [],
    "notes": ""
  },
  {
    "id": "duomo-di-modena",
    "name": "Duomo di Modena",
    "description": "",
    "category": "chiese",
    "coordinates": [
      44.647,
      10.925
    ],
    "visitDate": "2023-12-03",
    "country": "Italia",
    "region": "Emilia-Romagna",
    "province": "MO",
    "municipality": "Modena",
    "tags": [],
    "notes": ""
  },
  {
    "id": "chiesa-di-san-giorgio-modena",
    "name": "Chiesa di San Giorgio",
    "description": "",
    "category": "chiese",
    "coordinates": [
      44.647,
      10.925
    ],
    "visitDate": "2023-12-03",
    "country": "Italia",
    "region": "Emilia-Romagna",
    "province": "MO",
    "municipality": "Modena",
    "tags": [],
    "notes": ""
  },
  {
    "id": "chiesa-di-santa-maria-della-pomposa",
    "name": "Chiesa di Santa Maria della Pomposa",
    "description": "",
    "category": "chiese",
    "coordinates": [
      44.647,
      10.925
    ],
    "visitDate": "2023-12-03",
    "country": "Italia",
    "region": "Emilia-Romagna",
    "province": "MO",
    "municipality": "Modena",
    "tags": [],
    "notes": ""
  },
  {
    "id": "chiesa-santa-caterina-vergine-e-martire",
    "name": "Chiesa Santa Caterina Vergine e Martire",
    "description": "",
    "category": "chiese",
    "coordinates": [
      44.839,
      10.264
    ],
    "visitDate": "2023-12-10",
    "country": "Italia",
    "region": "Emilia-Romagna",
    "province": "PR",
    "municipality": "Diolo",
    "tags": [],
    "notes": ""
  },
  {
    "id": "chiesa-ss-trinita",
    "name": "Chiesa SS Trinità",
    "description": "",
    "category": "chiese",
    "coordinates": [
      44.851,
      9.868
    ],
    "visitDate": "2024-06-07",
    "country": "Italia",
    "region": "Emilia-Romagna",
    "province": "PC",
    "municipality": "Castell'Arquato",
    "tags": [],
    "notes": ""
  },
  {
    "id": "collegiata-di-santa-maria-assunta",
    "name": "Collegiata di Santa Maria Assunta",
    "description": "",
    "category": "chiese",
    "coordinates": [
      44.851,
      9.868
    ],
    "visitDate": "2024-06-07",
    "country": "Italia",
    "region": "Emilia-Romagna",
    "province": "PC",
    "municipality": "Castell'Arquato",
    "tags": [],
    "notes": ""
  },
  {
    "id": "pieve-di-san-giorgio",
    "name": "Pieve di San Giorgio",
    "description": "",
    "category": "chiese",
    "coordinates": [
      44.817,
      9.901
    ],
    "visitDate": "2024-06-07",
    "country": "Italia",
    "region": "Emilia-Romagna",
    "province": "PC",
    "municipality": "Vigoleno",
    "tags": [],
    "notes": ""
  },
  {
    "id": "oratorio-madonna-delle-grazie",
    "name": "Oratorio Madonna delle Grazie",
    "description": "",
    "category": "chiese",
    "coordinates": [
      44.817,
      9.901
    ],
    "visitDate": "2024-06-07",
    "country": "Italia",
    "region": "Emilia-Romagna",
    "province": "PC",
    "municipality": "Vigoleno",
    "tags": [],
    "notes": ""
  },
  {
    "id": "ossario-di-san-martino",
    "name": "Ossario di San Martino",
    "description": "",
    "category": "chiese",
    "coordinates": [
      45.425,
      10.602
    ],
    "visitDate": "2024-06-16",
    "country": "Italia",
    "region": "Lombardia",
    "province": "BS",
    "municipality": "San Martino della Battaglia",
    "tags": [],
    "notes": ""
  },
  {
    "id": "ossario-di-solferino",
    "name": "Ossario di Solferino",
    "description": "",
    "category": "chiese",
    "coordinates": [
      45.372,
      10.564
    ],
    "visitDate": "2024-06-16",
    "country": "Italia",
    "region": "Lombardia",
    "province": "MN",
    "municipality": "Solferino",
    "tags": [],
    "notes": ""
  },
  {
    "id": "chiesa-di-san-nicola-solferino",
    "name": "Chiesa di San Nicola",
    "description": "",
    "category": "chiese",
    "coordinates": [
      45.372,
      10.564
    ],
    "visitDate": "2024-06-16",
    "country": "Italia",
    "region": "Lombardia",
    "province": "MN",
    "municipality": "Solferino",
    "tags": [],
    "notes": ""
  },
  {
    "id": "parrocchia-di-san-gaetano",
    "name": "Parrocchia di San Gaetano",
    "description": "",
    "category": "chiese",
    "coordinates": [
      36.68,
      15.139
    ],
    "visitDate": "2024-07-28",
    "country": "Italia",
    "region": "Sicilia",
    "province": "SR",
    "municipality": "Portopalo di Capo Passero",
    "tags": [],
    "notes": ""
  },
  {
    "id": "basilica-di-san-sebastiano",
    "name": "Basilica di San Sebastiano",
    "description": "",
    "category": "chiese",
    "coordinates": [
      37.057,
      14.9
    ],
    "visitDate": "2024-08-03",
    "country": "Italia",
    "region": "Sicilia",
    "province": "SR",
    "municipality": "Palazzolo Acreide",
    "tags": [],
    "notes": ""
  },
  {
    "id": "basilica-cattedrale-di-sant-agata",
    "name": "Basilica Cattedrale di Sant'Agata",
    "description": "",
    "category": "chiese",
    "coordinates": [
      37.502,
      15.087
    ],
    "visitDate": "2024-08-06",
    "country": "Italia",
    "region": "Sicilia",
    "province": "CT",
    "municipality": "Catania",
    "tags": [],
    "notes": ""
  },
  {
    "id": "basilica-della-collegiata",
    "name": "Basilica della Collegiata",
    "description": "",
    "category": "chiese",
    "coordinates": [
      37.502,
      15.087
    ],
    "visitDate": "2024-08-06",
    "country": "Italia",
    "region": "Sicilia",
    "province": "CT",
    "municipality": "Catania",
    "tags": [],
    "notes": ""
  },
  {
    "id": "basilica-di-santa-maria-assunta-randazzo",
    "name": "Basilica di Santa Maria Assunta",
    "description": "",
    "category": "chiese",
    "coordinates": [
      37.876,
      14.95
    ],
    "visitDate": "2024-08-08",
    "country": "Italia",
    "region": "Sicilia",
    "province": "CT",
    "municipality": "Randazzo",
    "tags": [],
    "notes": ""
  },
  {
    "id": "chiesa-di-san-nicolo-randazzo",
    "name": "Chiesa di San Nicolò",
    "description": "",
    "category": "chiese",
    "coordinates": [
      37.876,
      14.95
    ],
    "visitDate": "2024-08-08",
    "country": "Italia",
    "region": "Sicilia",
    "province": "CT",
    "municipality": "Randazzo",
    "tags": [],
    "notes": ""
  },
  {
    "id": "basilica-di-san-giovanni-battista",
    "name": "Basilica di San Giovanni Battista",
    "description": "",
    "category": "chiese",
    "coordinates": [
      37.052,
      14.765
    ],
    "visitDate": "2024-08-10",
    "country": "Italia",
    "region": "Sicilia",
    "province": "RG",
    "municipality": "Monterosso Almo",
    "tags": [],
    "notes": ""
  },
  {
    "id": "basilica-santuario-madonna-delle-lacrime",
    "name": "Basilica Santuario Madonna delle Lacrime",
    "description": "",
    "category": "chiese",
    "coordinates": [
      37.085,
      15.286
    ],
    "visitDate": "2024-08-11",
    "country": "Italia",
    "region": "Sicilia",
    "province": "SR",
    "municipality": "Siracusa",
    "tags": [],
    "notes": ""
  },
  {
    "id": "chiesetta-alpina-di-campobrun",
    "name": "Chiesetta Alpina di Campobrun",
    "description": "",
    "category": "chiese",
    "coordinates": [
      45.754,
      11.0
    ],
    "visitDate": "2024-08-15",
    "country": "Italia",
    "region": "Trentino-Alto Adige",
    "province": "TN",
    "municipality": "Ala",
    "tags": [],
    "notes": ""
  },
  {
    "id": "chiesa-dell-annunciazione-di-maria-vergine",
    "name": "Chiesa dell'Annunciazione di Maria Vergine",
    "description": "",
    "category": "chiese",
    "coordinates": [
      44.606,
      10.263
    ],
    "visitDate": "2024-09-14",
    "country": "Italia",
    "region": "Emilia-Romagna",
    "province": "PR",
    "municipality": "Langhirano",
    "tags": [],
    "notes": ""
  },
  {
    "id": "chiesa-di-san-francesco-casalmaggiore",
    "name": "Chiesa di San Francesco",
    "description": "",
    "category": "chiese",
    "coordinates": [
      44.996,
      10.421
    ],
    "visitDate": "2024-09-21",
    "country": "Italia",
    "region": "Lombardia",
    "province": "CR",
    "municipality": "Casalmaggiore",
    "tags": [],
    "notes": ""
  },
  {
    "id": "chiesa-di-san-bernardino-da-siena",
    "name": "Chiesa di San Bernardino da Siena",
    "description": "",
    "category": "chiese",
    "coordinates": [
      44.784,
      10.932
    ],
    "visitDate": "2024-09-22",
    "country": "Italia",
    "region": "Emilia-Romagna",
    "province": "MO",
    "municipality": "Carpi",
    "tags": [],
    "notes": ""
  },
  {
    "id": "cattedrale-di-santa-maria-assunta-carpi",
    "name": "Cattedrale di Santa Maria Assunta",
    "description": "",
    "category": "chiese",
    "coordinates": [
      44.784,
      10.932
    ],
    "visitDate": "2024-09-22",
    "country": "Italia",
    "region": "Emilia-Romagna",
    "province": "MO",
    "municipality": "Carpi",
    "tags": [],
    "notes": ""
  },
  {
    "id": "monastero-suore-clarisse",
    "name": "Monastero Suore Clarisse",
    "description": "",
    "category": "chiese",
    "coordinates": [
      44.784,
      10.932
    ],
    "visitDate": "2024-09-22",
    "country": "Italia",
    "region": "Emilia-Romagna",
    "province": "MO",
    "municipality": "Carpi",
    "tags": [],
    "notes": ""
  },
  {
    "id": "chiesa-di-sant-ignazio-di-loyola",
    "name": "Chiesa di Sant'Ignazio di Loyola",
    "description": "",
    "category": "chiese",
    "coordinates": [
      44.784,
      10.932
    ],
    "visitDate": "2024-09-22",
    "country": "Italia",
    "region": "Emilia-Romagna",
    "province": "MO",
    "municipality": "Carpi",
    "tags": [],
    "notes": ""
  },
  {
    "id": "chiesa-dei-santi-benigno-e-caro-detta-della-disciplina",
    "name": "Chiesa dei Santi Benigno e Caro detta \"della Disciplina\"",
    "description": "",
    "category": "chiese",
    "coordinates": [
      45.766,
      10.809
    ],
    "visitDate": "2024-09-29",
    "country": "Italia",
    "region": "Veneto",
    "province": "VR",
    "municipality": "Malcesine",
    "tags": [],
    "notes": ""
  },
  {
    "id": "chiesa-di-spezzano",
    "name": "Chiesa di Spezzano",
    "description": "",
    "category": "chiese",
    "coordinates": [
      44.567,
      10.829
    ],
    "visitDate": "2024-10-20",
    "country": "Italia",
    "region": "Emilia-Romagna",
    "province": "MO",
    "municipality": "Fiorano Modenese",
    "tags": [],
    "notes": ""
  },
  {
    "id": "chiesa-della-beata-vergine-di-loreto-polesine-parmense",
    "name": "Chiesa della Beata Vergine di Loreto",
    "description": "",
    "category": "chiese",
    "coordinates": [
      44.948,
      10.161
    ],
    "visitDate": "2024-10-28",
    "country": "Italia",
    "region": "Emilia-Romagna",
    "province": "PR",
    "municipality": "Polesine Parmense",
    "tags": [],
    "notes": ""
  },
  {
    "id": "abbazia-di-pomposa",
    "name": "Abbazia di Pomposa",
    "description": "",
    "category": "chiese",
    "coordinates": [
      44.664,
      12.175
    ],
    "visitDate": "2024-11-01",
    "country": "Italia",
    "region": "Emilia-Romagna",
    "province": "FE",
    "municipality": "Codigoro",
    "tags": [],
    "notes": ""
  },
  {
    "id": "parrocchia-della-nativita-di-maria",
    "name": "Parrocchia della Natività di Maria",
    "description": "",
    "category": "chiese",
    "coordinates": [
      44.923,
      12.23
    ],
    "visitDate": "2024-11-01",
    "country": "Italia",
    "region": "Emilia-Romagna",
    "province": "FE",
    "municipality": "Mesola",
    "tags": [],
    "notes": ""
  },
  {
    "id": "santuario-santa-maria-in-aula-regia",
    "name": "Santuario Santa Maria in Aula Regia",
    "description": "",
    "category": "chiese",
    "coordinates": [
      44.696,
      12.183
    ],
    "visitDate": "2024-11-02",
    "country": "Italia",
    "region": "Emilia-Romagna",
    "province": "FE",
    "municipality": "Comacchio",
    "tags": [],
    "notes": ""
  },
  {
    "id": "basilica-concattedrale-di-san-cassiano-martire",
    "name": "Basilica Concattedrale di San Cassiano Martire",
    "description": "",
    "category": "chiese",
    "coordinates": [
      44.696,
      12.183
    ],
    "visitDate": "2024-11-02",
    "country": "Italia",
    "region": "Emilia-Romagna",
    "province": "FE",
    "municipality": "Comacchio",
    "tags": [],
    "notes": ""
  },
  {
    "id": "chiesa-parrocchiale-del-santissimo-rosario",
    "name": "Chiesa Parrocchiale del Santissimo Rosario",
    "description": "",
    "category": "chiese",
    "coordinates": [
      44.696,
      12.183
    ],
    "visitDate": "2024-11-02",
    "country": "Italia",
    "region": "Emilia-Romagna",
    "province": "FE",
    "municipality": "Comacchio",
    "tags": [],
    "notes": ""
  },
  {
    "id": "chiesa-del-carmine",
    "name": "Chiesa del Carmine",
    "description": "",
    "category": "chiese",
    "coordinates": [
      44.696,
      12.183
    ],
    "visitDate": "2024-11-02",
    "country": "Italia",
    "region": "Emilia-Romagna",
    "province": "FE",
    "municipality": "Comacchio",
    "tags": [],
    "notes": ""
  },
  {
    "id": "chiesa-dei-ss-pietro-e-paolo-comacchio",
    "name": "Chiesa dei SS. Pietro e Paolo",
    "description": "",
    "category": "chiese",
    "coordinates": [
      44.696,
      12.183
    ],
    "visitDate": "2024-11-02",
    "country": "Italia",
    "region": "Emilia-Romagna",
    "province": "FE",
    "municipality": "Comacchio",
    "tags": [],
    "notes": ""
  },
  {
    "id": "cattedrale-di-san-giorgio-martire",
    "name": "Cattedrale di San Giorgio Martire",
    "description": "",
    "category": "chiese",
    "coordinates": [
      44.838,
      11.619
    ],
    "visitDate": "2024-11-03",
    "country": "Italia",
    "region": "Emilia-Romagna",
    "province": "FE",
    "municipality": "Ferrara",
    "tags": [],
    "notes": ""
  },
  {
    "id": "duomo-di-san-vigilio",
    "name": "Duomo di San Vigilio",
    "description": "",
    "category": "chiese",
    "coordinates": [
      46.066,
      11.121
    ],
    "visitDate": "2024-12-15",
    "country": "Italia",
    "region": "Trentino-Alto Adige",
    "province": "TN",
    "municipality": "Trento",
    "tags": [],
    "notes": ""
  },
  {
    "id": "cattedrale-di-parma",
    "name": "Cattedrale di Parma",
    "description": "",
    "category": "chiese",
    "coordinates": [
      44.801,
      10.329
    ],
    "visitDate": "2025-02-02",
    "country": "Italia",
    "region": "Emilia-Romagna",
    "province": "PR",
    "municipality": "Parma",
    "tags": [],
    "notes": ""
  },
  {
    "id": "chiesa-di-san-giovanni-evangelista",
    "name": "Chiesa di San Giovanni Evangelista",
    "description": "",
    "category": "chiese",
    "coordinates": [
      44.801,
      10.329
    ],
    "visitDate": "2025-02-02",
    "country": "Italia",
    "region": "Emilia-Romagna",
    "province": "PR",
    "municipality": "Parma",
    "tags": [],
    "notes": ""
  },
  {
    "id": "chiesa-di-sant-antonio-di-padova",
    "name": "Chiesa di Sant'Antonio di Padova",
    "description": "",
    "category": "chiese",
    "coordinates": [
      45.908,
      10.896
    ],
    "visitDate": "2025-04-25",
    "country": "Italia",
    "region": "Trentino-Alto Adige",
    "province": "TN",
    "municipality": "Dro",
    "tags": [],
    "notes": ""
  },
  {
    "id": "chiesa-madre-di-santa-maria-assunta",
    "name": "Chiesa Madre di Santa Maria Assunta",
    "description": "",
    "category": "chiese",
    "coordinates": [
      45.92,
      10.884
    ],
    "visitDate": "2025-04-25",
    "country": "Italia",
    "region": "Trentino-Alto Adige",
    "province": "TN",
    "municipality": "Arco",
    "tags": [],
    "notes": ""
  },
  {
    "id": "chiesa-evangelica-della-santissima-trinita",
    "name": "Chiesa Evangelica della Santissima Trinità",
    "description": "",
    "category": "chiese",
    "coordinates": [
      45.92,
      10.884
    ],
    "visitDate": "2025-04-25",
    "country": "Italia",
    "region": "Trentino-Alto Adige",
    "province": "TN",
    "municipality": "Arco",
    "tags": [],
    "notes": ""
  },
  {
    "id": "cappella-ducale-di-san-liborio",
    "name": "Cappella Ducale di San Liborio",
    "description": "",
    "category": "chiese",
    "coordinates": [
      44.93,
      10.377
    ],
    "visitDate": "2025-04-26",
    "country": "Italia",
    "region": "Emilia-Romagna",
    "province": "PR",
    "municipality": "Colorno",
    "tags": [],
    "notes": ""
  }
]