[
  {
    "id": "fiera-nazionale-del-tartufo-bianco-di-borgofranco-sul-po",
    "name": "Fiera Nazionale del Tartufo Bianco di Borgofranco sul Po",
    "description": "",
    "category": "eventi",
    "coordinates": [
      45.1,
      10.85
    ],
    "visitDate": "2021-10-03",
    "country": "Italia",
    "region": "Lombardia",
    "province": "MN",
    "municipality": "Borgocarbonara",
    "address": "46020 Borgocarbonara MN"
  },
  {
    "id": "esotika-pet-show",
    "name": "Esotika Pet Show",
    "description": "",
    "category": "eventi",
    "coordinates": [
      45.1603,
      10.7978
    ],
    "visitDate": "2021-10-09",
    "country": "Italia",
    "region": "Lombardia",
    "province": "MN",
    "municipality": "Mantova",
    "address": "46100 Mantova MN"
  },
  {
    "id": "tuttofood-milano",
    "name": "TuttoFood Milano",
    "description": "",
    "category": "eventi",
    "coordinates": [
      45.5267,
      9.042
    ],
    "visitDate": "2021-10-25",
    "country": "Italia",
    "region": "Lombardia",
    "province": "MI",
    "municipality": "Rho",
    "address": "20017 Rho MI"
  },
  {
    "id": "mantova-wonderfest",
    "name": "Mantova Wonderfest",
    "description": "",
    "category": "eventi",
    "coordinates": [
      45.1603,
      10.7978
    ],
    "visitDate": "2022-05-28",
    "country": "Italia",
    "region": "Lombardia",
    "province": "MN",
    "municipality": "Mantova",
    "address": "46100 Mantova MN"
  },
  {
    "id": "oscar-green-coldiretti",
    "name": "Oscar Green Coldiretti",
    "description": "",
    "category": "eventi",
    "coordinates": [
      45.1603,
      10.7978
    ],
    "visitDate": "2022-09-16",
    "country": "Italia",
    "region": "Lombardia",
    "province": "MN",
    "municipality": "Mantova",
    "address": "46100 Mantova MN"
  },
  {
    "id": "villaggio-coldiretti-milano",
    "name": "Villaggio Coldiretti Milano",
    "description": "",
    "category": "eventi",
    "coordinates": [
      45.4642,
      9.19
    ],
    "visitDate": "2022-10-01",
    "country": "Italia",
    "region": "Lombardia",
    "province": "MI",
    "municipality": "Milano",
    "address": "20154 Milano MI"
  },
  {
    "id": "villaggio-coldiretti-venezia",
    "name": "Villaggio Coldiretti Venezia",
    "description": "",
    "category": "eventi",
    "coordinates": [
      45.4408,
      12.3155
    ],
    "visitDate": "2024-06-29",
    "country": "Italia",
    "region": "Veneto",
    "province": "VE",
    "municipality": "Venezia",
    "address": "30122 Venezia VE"
  },
  {
    "id": "festival-dell-oriente",
    "name": "Festival dell'Oriente",
    "description": "",
    "category": "eventi",
    "coordinates": [
      44.8015,
      10.328
    ],
    "visitDate": "2022-11-05",
    "country": "Italia",
    "region": "Emilia-Romagna",
    "province": "PR",
    "municipality": "Parma",
    "address": "43126 Parma PR"
  },
  {
    "id": "veronafil",
    "name": "VeronaFil",
    "description": "",
    "category": "eventi",
    "coordinates": [
      45.4384,
      10.9916
    ],
    "visitDate": "2023-05-19",
    "country": "Italia",
    "region": "Veneto",
    "province": "VR",
    "municipality": "Verona",
    "address": "37135 Verona VR"
  },
  {
    "id": "fiera-del-fungo-di-borgotaro-igp",
    "name": "Fiera del Fungo di Borgotaro IGP",
    "description": "",
    "category": "eventi",
    "coordinates": [
      44.4833,
      9.7833
    ],
    "visitDate": "2023-09-17",
    "country": "Italia",
    "region": "Emilia-Romagna",
    "province": "PR",
    "municipality": "Borgo Val di Taro",
    "address": "43043 Borgo Val di Taro PR"
  },
  {
    "id": "november-porc-2021",
    "name": "November Porc 2021",
    "description": "",
    "category": "eventi",
    "coordinates": [
      44.9167,
      10.1
    ],
    "visitDate": "2021-11-20",
    "country": "Italia",
    "region": "Emilia-Romagna",
    "province": "PR",
    "municipality": "Polesine Zibello",
    "address": "43010 Polesine Zibello PR"
  },
  {
    "id": "november-porc-2022",
    "name": "November Porc 2022",
    "description": "",
    "category": "eventi",
    "coordinates": [
      44.95,
      10.2167
    ],
    "visitDate": "2022-11-05",
    "country": "Italia",
    "region": "Emilia-Romagna",
    "province": "PR",
    "municipality": "Sissa Trecasali",
    "address": "43018 Sissa Trecasali PR"
  },
  {
    "id": "november-porc-2023",
    "name": "November Porc 2023",
    "description": "",
    "category": "eventi",
    "coordinates": [
      44.9333,
      10.1
    ],
    "visitDate": "2023-11-11",
    "country": "Italia",
    "region": "Emilia-Romagna",
    "province": "PR",
    "municipality": "Polesine Parmense",
    "address": "43010 Polesine Parmense PR"
  },
  {
    "id": "apimell-seminat-buonvivere",
    "name": "Apimell - Seminat - Buonvivere",
    "description": "",
    "category": "eventi",
    "coordinates": [
      45.0522,
      9.693
    ],
    "visitDate": "2024-03-01",
    "country": "Italia",
    "region": "Emilia-Romagna",
    "province": "PC",
    "municipality": "Piacenza",
    "address": "29122 Piacenza PC"
  },
  {
    "id": "corteo-storico-matildico",
    "name": "Corteo Storico Matildico",
    "description": "",
    "category": "eventi",
    "coordinates": [
      44.6167,
      10.4333
    ],
    "visitDate": "2024-05-26",
    "country": "Italia",
    "region": "Emilia-Romagna",
    "province": "RE",
    "municipality": "Quattro Castella",
    "address": "42020 Quattro Castella RE"
  },
  {
    "id": "festa-del-fungo",
    "name": "Festa del Fungo",
    "description": "",
    "category": "eventi",
    "coordinates": [
      45.0167,
      10.9167
    ],
    "visitDate": "2024-09-13",
    "country": "Italia",
    "region": "Lombardia",
    "province": "MN",
    "municipality": "Quistello",
    "address": "46026 Quistello MN"
  },
  {
    "id": "festival-del-prosciutto-di-parma",
    "name": "Festival del Prosciutto di Parma",
    "description": "",
    "category": "eventi",
    "coordinates": [
      44.6216,
      10.2567
    ],
    "visitDate": "2024-09-14",
    "country": "Italia",
    "region": "Emilia-Romagna",
    "province": "PR",
    "municipality": "Langhirano",
    "address": "43013 Langhirano PR"
  },
  {
    "id": "padus-mirabilis",
    "name": "Padus Mirabilis",
    "description": "",
    "category": "eventi",
    "coordinates": [
      44.9,
      10.4
    ],
    "visitDate": "2024-09-21",
    "country": "Italia",
    "region": "Emilia-Romagna",
    "province": "PR",
    "municipality": "Sacca di Colorno",
    "address": "43052 Sacca di Colorno PR"
  },
  {
    "id": "international-street-food",
    "name": "International Street Food",
    "description": "",
    "category": "eventi",
    "coordinates": [
      44.9898,
      10.4206
    ],
    "visitDate": "2024-09-21",
    "country": "Italia",
    "region": "Lombardia",
    "province": "CR",
    "municipality": "Casalmaggiore",
    "address": "26041 Casalmaggiore CR"
  },
  {
    "id": "emilia-food-fest",
    "name": "Emilia Food Fest",
    "description": "",
    "category": "eventi",
    "coordinates": [
      44.7844,
      10.8832
    ],
    "visitDate": "2024-09-22",
    "country": "Italia",
    "region": "Emilia-Romagna",
    "province": "MO",
    "municipality": "Carpi",
    "address": "41012 Carpi MO"
  },
  {
    "id": "salumi-da-re",
    "name": "Salumi Da Re",
    "description": "",
    "category": "eventi",
    "coordinates": [
      44.9333,
      10.1
    ],
    "visitDate": "2024-10-28",
    "country": "Italia",
    "region": "Emilia-Romagna",
    "province": "PR",
    "municipality": "Polesine Parmense",
    "address": "43010 Polesine Parmense PR"
  },
  {
    "id": "sagra-sapori-d-autunno",
    "name": "Sagra Sapori d'Autunno",
    "description": "",
    "category": "eventi",
    "coordinates": [
      44.8833,
      12.2333
    ],
    "visitDate": "2024-11-01",
    "country": "Italia",
    "region": "Emilia-Romagna",
    "province": "FE",
    "municipality": "Mesola",
    "address": "44026 Mesola FE"
  },
  {
    "id": "ferrara-food-festival",
    "name": "Ferrara Food Festival",
    "description": "",
    "category": "eventi",
    "coordinates": [
      44.8378,
      11.6196
    ],
    "visitDate": "2024-11-03",
    "country": "Italia",
    "region": "Emilia-Romagna",
    "province": "FE",
    "municipality": "Ferrara",
    "address": "44121 Ferrara FE"
  },
  {
    "id": "mercatini-di-natale-di-trento",
    "name": "Mercatini di Natale di Trento",
    "description": "",
    "category": "eventi",
    "coordinates": [
      46.0679,
      11.1211
    ],
    "visitDate": "2024-12-15",
    "country": "Italia",
    "region": "Trentino-Alto Adige",
    "province": "TN",
    "municipality": "Trento",
    "address": "38122 Trento TN"
  },
  {
    "id": "sol2expo",
    "name": "Sol2Expo",
    "description": "",
    "category": "eventi",
    "coordinates": [
      45.4384,
      10.9916
    ],
    "visitDate": "2025-03-02",
    "country": "Italia",
    "region": "Veneto",
    "province": "VR",
    "municipality": "Verona",
    "address": "37129 Verona VR"
  },
  {
    "id": "arcobonsai-arcofiori",
    "name": "ArcoBonsai - ArcoFiori",
    "description": "",
    "category": "eventi",
    "coordinates": [
      45.9167,
      10.8833
    ],
    "visitDate": "2025-04-25",
    "country": "Italia",
    "region": "Trentino-Alto Adige",
    "province": "TN",
    "municipality": "Arco",
    "address": "38062 Arco TN"
  },
  {
    "id": "nel-segno-del-giglio",
    "name": "Nel Segno del Giglio",
    "description": "",
    "category": "eventi",
    "coordinates": [
      44.9333,
      10.3833
    ],
    "visitDate": "2025-04-26",
    "country": "Italia",
    "region": "Emilia-Romagna",
    "province": "PR",
    "municipality": "Colorno",
    "address": "43052 Colorno PR"
  }
]