[
  {
    "id": "lago-di-garda",
    "name": "Lago di Garda",
    "description": "",
    "category": "laghi",
    "coordinates": [0, 0],
    "visitDate": "",
    "country": "Italia",
    "region": "",
    "province": "",
    "municipality": ""
  },
  {
    "id": "laghi-di-mantova",
    "name": "Laghi di Mantova (Superiore, di Mezzo, Inferiore)",
    "description": "",
    "category": "laghi",
    "coordinates": [0, 0],
    "visitDate": "",
    "country": "Italia",
    "region": "Lombardia",
    "province": "MN",
    "municipality": "Mantova",
    "address": "46100 Mantova MN"
  },
  {
    "id": "lago-di-ledro",
    "name": "Lago di Ledro",
    "description": "",
    "category": "laghi",
    "coordinates": [0, 0],
    "visitDate": "2017-08-01",
    "country": "Italia",
    "region": "Trentino-Alto Adige",
    "province": "TN",
    "municipality": "Ledro",
    "address": "38067 Ledro TN"
  },
  {
    "id": "lago-d-ampola",
    "name": "Lago d’Ampola",
    "description": "",
    "category": "laghi",
    "coordinates": [0, 0],
    "visitDate": "2017-08-01",
    "country": "Italia",
    "region": "Trentino-Alto Adige",
    "province": "TN",
    "municipality": "Ledro",
    "address": "38067 Ledro TN"
  },
  {
    "id": "lago-di-molveno",
    "name": "Lago di Molveno",
    "description": "",
    "category": "laghi",
    "coordinates": [0, 0],
    "visitDate": "2019-08-01",
    "country": "Italia",
    "region": "Trentino-Alto Adige",
    "province": "TN",
    "municipality": "Molveno",
    "address": "38018 Molveno TN"
  },
  {
    "id": "lago-di-bior",
    "name": "Lago di Bior",
    "description": "",
    "category": "laghi",
    "coordinates": [0, 0],
    "visitDate": "2019-08-01",
    "country": "Italia",
    "region": "Trentino-Alto Adige",
    "province": "TN",
    "municipality": "Molveno",
    "address": "38018 Molveno TN"
  },
  {
    "id": "lago-calamone",
    "name": "Lago Calamone",
    "description": "",
    "category": "laghi",
    "coordinates": [0, 0],
    "visitDate": "2021-06-28",
    "country": "Italia",
    "region": "Emilia-Romagna",
    "province": "RE",
    "municipality": "Ventasso",
    "address": "42030 Ventasso RE"
  },
  {
    "id": "lago-di-malga-boazzo",
    "name": "Lago di Malga Boazzo",
    "description": "",
    "category": "laghi",
    "coordinates": [0, 0],
    "visitDate": "2021-07-23",
    "country": "Italia",
    "region": "Trentino-Alto Adige",
    "province": "TN",
    "municipality": "Daone",
    "address": "38080 Daone TN"
  },
  {
    "id": "lago-di-malga-bissina",
    "name": "Lago di Malga Bissina",
    "description": "",
    "category": "laghi",
    "coordinates": [0, 0],
    "visitDate": "2021-07-23",
    "country": "Italia",
    "region": "Trentino-Alto Adige",
    "province": "TN",
    "municipality": "Daone",
    "address": "38080 Daone TN"
  },
  {
    "id": "lago-d-idro",
    "name": "Lago d’Idro",
    "description": "",
    "category": "laghi",
    "coordinates": [0, 0],
    "visitDate": "2021-07-23",
    "country": "Italia",
    "region": "Lombardia",
    "province": "BS",
    "municipality": "Anfo",
    "address": "25070 Anfo BS"
  },
  {
    "id": "lago-d-iseo",
    "name": "Lago d’Iseo",
    "description": "",
    "category": "laghi",
    "coordinates": [0, 0],
    "visitDate": "2021-08-11",
    "country": "Italia",
    "region": "Lombardia",
    "province": "BG",
    "municipality": "Riva di Solto",
    "address": "24060 Riva di Solto BG"
  },
  {
    "id": "lago-santo-parmense",
    "name": "Lago Santo Parmense",
    "description": "",
    "category": "laghi",
    "coordinates": [0, 0],
    "visitDate": "2021-08-15",
    "country": "Italia",
    "region": "Emilia-Romagna",
    "province": "PR",
    "municipality": "Corniglio",
    "address": "43021 Corniglio PR"
  },
  {
    "id": "lago-padre",
    "name": "Lago Padre",
    "description": "",
    "category": "laghi",
    "coordinates": [0, 0],
    "visitDate": "2021-08-15",
    "country": "Italia",
    "region": "Emilia-Romagna",
    "province": "PR",
    "municipality": "Corniglio",
    "address": "43021 Corniglio PR"
  },
  {
    "id": "lago-di-tenno",
    "name": "Lago di Tenno",
    "description": "",
    "category": "laghi",
    "coordinates": [0, 0],
    "visitDate": "2022-06-19",
    "country": "Italia",
    "region": "Trentino-Alto Adige",
    "province": "TN",
    "municipality": "Tenno",
    "address": "38060 Tenno TN"
  },
  {
    "id": "lago-valcanale",
    "name": "Lago Valcanale",
    "description": "",
    "category": "laghi",
    "coordinates": [0, 0],
    "visitDate": "2023-06-18",
    "country": "Italia",
    "region": "Lombardia",
    "province": "BG",
    "municipality": "Ardesio",
    "address": "24020 Ardesio BG"
  },
  {
    "id": "lago-lissone",
    "name": "Lago Lissone",
    "description": "",
    "category": "laghi",
    "coordinates": [0, 0],
    "visitDate": "2023-08-19",
    "country": "Italia",
    "region": "Lombardia",
    "province": "BS",
    "municipality": "Saviore dell’Adamello",
    "address": "25040 Saviore dell’Adamello BS"
  },
  {
    "id": "lago-di-braies",
    "name": "Lago di Braies",
    "description": "",
    "category": "laghi",
    "coordinates": [0, 0],
    "visitDate": "2023-08-27",
    "country": "Italia",
    "region": "Trentino-Alto Adige",
    "province": "BZ",
    "municipality": "Braies",
    "address": "39030 Braies BZ"
  },
  {
    "id": "lago-martini",
    "name": "Lago Martini",
    "description": "",
    "category": "laghi",
    "coordinates": [0, 0],
    "visitDate": "2023-09-10",
    "country": "Italia",
    "region": "Emilia-Romagna",
    "province": "PR",
    "municipality": "Monchio delle corti",
    "address": "43010 Monchio delle corti PR"
  },
  {
    "id": "laghi-del-sillara",
    "name": "Laghi del Sillara",
    "description": "",
    "category": "laghi",
    "coordinates": [0, 0],
    "visitDate": "2023-09-10",
    "country": "Italia",
    "region": "Emilia-Romagna",
    "province": "PR",
    "municipality": "Monchio delle corti",
    "address": "43010 Monchio delle corti PR"
  },
  {
    "id": "laghi-di-compione",
    "name": "Laghi di Compione",
    "description": "",
    "category": "laghi",
    "coordinates": [0, 0],
    "visitDate": "2023-09-10",
    "country": "Italia",
    "region": "Emilia-Romagna",
    "province": "PR",
    "municipality": "Monchio delle corti",
    "address": "43010 Monchio delle corti PR"
  },
  {
    "id": "lago-verde",
    "name": "Lago Verde",
    "description": "",
    "category": "laghi",
    "coordinates": [0, 0],
    "visitDate": "2023-09-10",
    "country": "Italia",
    "region": "Emilia-Romagna",
    "province": "PR",
    "municipality": "Monchio delle corti",
    "address": "43010 Monchio delle corti PR"
  },
  {
    "id": "lago-ballano",
    "name": "Lago Ballano",
    "description": "",
    "category": "laghi",
    "coordinates": [0, 0],
    "visitDate": "2023-09-10",
    "country": "Italia",
    "region": "Emilia-Romagna",
    "province": "PR",
    "municipality": "Monchio delle corti",
    "address": "43010 Monchio delle corti PR"
  },
  {
    "id": "lago-verdarolo",
    "name": "Lago Verdarolo",
    "description": "",
    "category": "laghi",
    "coordinates": [0, 0],
    "visitDate": "2023-09-10",
    "country": "Italia",
    "region": "Emilia-Romagna",
    "province": "PR",
    "municipality": "Monchio delle corti",
    "address": "43010 Monchio delle corti PR"
  },
  {
    "id": "lago-nero",
    "name": "Lago Nero",
    "description": "",
    "category": "laghi",
    "coordinates": [0, 0],
    "visitDate": "2023-09-10",
    "country": "Italia",
    "region": "Emilia-Romagna",
    "province": "PR",
    "municipality": "Monchio delle corti",
    "address": "43010 Monchio delle corti PR"
  },
  {
    "id": "lago-della-contessa",
    "name": "Lago della Contessa",
    "description": "",
    "category": "laghi",
    "coordinates": [0, 0],
    "visitDate": "2024-05-26",
    "country": "Italia",
    "region": "Emilia-Romagna",
    "province": "RE",
    "municipality": "Quattro Castella",
    "address": "42020 Quattro Castella RE"
  },
  {
    "id": "lago-della-vacca",
    "name": "Lago della Vacca",
    "description": "",
    "category": "laghi",
    "coordinates": [0, 0],
    "visitDate": "2024-06-22",
    "country": "Italia",
    "region": "Lombardia",
    "province": "BS",
    "municipality": "Breno",
    "address": "25043 Breno BS"
  },
  {
    "id": "lago-blu",
    "name": "Lago Blu",
    "description": "",
    "category": "laghi",
    "coordinates": [0, 0],
    "visitDate": "2024-07-05",
    "country": "Italia",
    "region": "Valle d'Aosta",
    "province": "AO",
    "municipality": "Valtournenche",
    "address": "11028 Valtournenche AO"
  },
  {
    "id": "lago-di-maen",
    "name": "Lago di Maen",
    "description": "",
    "category": "laghi",
    "coordinates": [0, 0],
    "visitDate": "2024-07-05",
    "country": "Italia",
    "region": "Valle d'Aosta",
    "province": "AO",
    "municipality": "Maen",
    "address": "11028 Maen AO"
  },
  {
    "id": "lago-di-lod",
    "name": "Lago di Lod",
    "description": "",
    "category": "laghi",
    "coordinates": [0, 0],
    "visitDate": "2024-07-05",
    "country": "Italia",
    "region": "Valle d'Aosta",
    "province": "AO",
    "municipality": "Chamois",
    "address": "11020 Chamois AO"
  },
  {
    "id": "laghetto-di-gover",
    "name": "Laghetto di Gover",
    "description": "",
    "category": "laghi",
    "coordinates": [0, 0],
    "visitDate": "2024-07-08",
    "country": "Italia",
    "region": "Valle d'Aosta",
    "province": "AO",
    "municipality": "Gressoney-Saint-Jean",
    "address": "11025 Gressoney-Saint-Jean AO"
  },
  {
    "id": "lago-di-bielciuckien",
    "name": "Lago di Bielciuckien",
    "description": "",
    "category": "laghi",
    "coordinates": [0, 0],
    "visitDate": "2024-07-08",
    "country": "Italia",
    "region": "Valle d'Aosta",
    "province": "AO",
    "municipality": "Gressoney-Saint-Jean",
    "address": "11025 Gressoney-Saint-Jean AO"
  },
  {
    "id": "lago-di-carezza",
    "name": "Lago di Carezza",
    "description": "",
    "category": "laghi",
    "coordinates": [0, 0],
    "visitDate": "2025-06-22",
    "country": "Italia",
    "region": "Trentino-Alto Adige",
    "province": "BZ",
    "municipality": "Nova Levante",
    "address": "39056 Nova Levante BZ"
  },
  {
    "id": "lago-di-mezzo-carezza",
    "name": "Lago di Mezzo",
    "description": "",
    "category": "laghi",
    "coordinates": [0, 0],
    "visitDate": "2025-06-22",
    "country": "Italia",
    "region": "Trentino-Alto Adige",
    "province": "BZ",
    "municipality": "Nova Levante",
    "address": "39056 Nova Levante BZ"
  }
]