[
  {
    "id": "palazzo-te",
    "name": "Palazzo Te",
    "description": "",
    "category": "musei",
    "coordinates": [45.1478, 10.7864],
    "visitDate": "1970-01-01",
    "country": "Italia",
    "region": "Lombardia",
    "province": "MN",
    "municipality": "Mantova",
    "tags": []
  },
  {
    "id": "museo-di-palazzo-san-sebastiano",
    "name": "Museo di Palazzo San Sebastiano",
    "description": "",
    "category": "musei",
    "coordinates": [45.1532, 10.7945],
    "visitDate": "1970-01-01",
    "country": "Italia",
    "region": "Lombardia",
    "province": "MN",
    "municipality": "Mantova",
    "tags": []
  },
  {
    "id": "museo-del-tempo",
    "name": "Museo del Tempo",
    "description": "",
    "category": "musei",
    "coordinates": [45.1607, 10.7977],
    "visitDate": "1970-01-01",
    "country": "Italia",
    "region": "Lombardia",
    "province": "MN",
    "municipality": "Mantova",
    "tags": []
  },
  {
    "id": "area-archeologica-domus-romana",
    "name": "Area Archeologica - Domus Romana",
    "description": "",
    "category": "musei",
    "coordinates": [45.1598, 10.7949],
    "visitDate": "1970-01-01",
    "country": "Italia",
    "region": "Lombardia",
    "province": "MN",
    "municipality": "Mantova",
    "tags": []
  },
  {
    "id": "palazzo-ducale-mantova",
    "name": "Palazzo Ducale",
    "description": "",
    "category": "musei",
    "coordinates": [45.1603, 10.7979],
    "visitDate": "1970-01-01",
    "country": "Italia",
    "region": "Lombardia",
    "province": "MN",
    "municipality": "Mantova",
    "tags": []
  },
  {
    "id": "museo-archeologico-nazionale-mantova",
    "name": "Museo Archeologico Nazionale di Mantova",
    "description": "",
    "category": "musei",
    "coordinates": [45.159, 10.7941],
    "visitDate": "1970-01-01",
    "country": "Italia",
    "region": "Lombardia",
    "province": "MN",
    "municipality": "Mantova",
    "tags": []
  },
  {
    "id": "museo-egizio-torino",
    "name": "Museo Egizio",
    "description": "",
    "category": "musei",
    "coordinates": [45.0684, 7.6843],
    "visitDate": "1970-01-01",
    "country": "Italia",
    "region": "Piemonte",
    "province": "TO",
    "municipality": "Torino",
    "tags": []
  },
  {
    "id": "the-museum-of-modern-art-moma",
    "name": "The Museum of Modern Art (MoMA)",
    "description": "",
    "category": "musei",
    "coordinates": [40.7614, -73.9776],
    "visitDate": "2015-03-08",
    "country": "Stati Uniti",
    "region": "New York",
    "province": "NY",
    "municipality": "New York",
    "tags": []
  },
  {
    "id": "metropolitan-museum-of-art",
    "name": "Metropolitan Museum of Art",
    "description": "",
    "category": "musei",
    "coordinates": [40.7794, -73.9632],
    "visitDate": "2015-03-09",
    "country": "Stati Uniti",
    "region": "New York",
    "province": "NY",
    "municipality": "New York",
    "tags": []
  },
  {
    "id": "american-museum-of-natural-history",
    "name": "American Museum of Natural History",
    "description": "",
    "category": "musei",
    "coordinates": [40.7813, -73.9731],
    "visitDate": "2015-03-09",
    "country": "Stati Uniti",
    "region": "New York",
    "province": "NY",
    "municipality": "New York",
    "tags": []
  },
  {
    "id": "solomon-r-guggenheim-museum",
    "name": "Solomon R. Guggenheim Museum",
    "description": "",
    "category": "musei",
    "coordinates": [40.7829, -73.959],
    "visitDate": "2015-03-10",
    "country": "Stati Uniti",
    "region": "New York",
    "province": "NY",
    "municipality": "New York",
    "tags": []
  },
  {
    "id": "statue-of-liberty-museum",
    "name": "Statue of Liberty Museum",
    "description": "",
    "category": "musei",
    "coordinates": [40.6892, -74.0445],
    "visitDate": "2015-03-11",
    "country": "Stati Uniti",
    "region": "New York",
    "province": "NY",
    "municipality": "New York",
    "tags": []
  },
  {
    "id": "ellis-island-national-museum-of-immigration",
    "name": "Ellis Island National Museum of Immigration",
    "description": "",
    "category": "musei",
    "coordinates": [40.6995, -74.0395],
    "visitDate": "2015-03-11",
    "country": "Stati Uniti",
    "region": "New Jersey",
    "province": "NJ",
    "municipality": "Jersey City",
    "tags": []
  },
  {
    "id": "museum-mensch-und-natur",
    "name": "Museum Mensch und Natur",
    "description": "",
    "category": "musei",
    "coordinates": [48.1621, 11.4706],
    "visitDate": "2015-04-02",
    "country": "Germania",
    "region": "Baviera",
    "province": "M",
    "municipality": "Monaco di Baviera",
    "tags": []
  },
  {
    "id": "museum-brandhorst",
    "name": "Museum Brandhorst",
    "description": "",
    "category": "musei",
    "coordinates": [48.1486, 11.5744],
    "visitDate": "2015-04-03",
    "country": "Germania",
    "region": "Baviera",
    "province": "M",
    "municipality": "Monaco di Baviera",
    "tags": []
  },
  {
    "id": "pinakothek-der-moderne",
    "name": "Pinakothek der Moderne",
    "description": "",
    "category": "musei",
    "coordinates": [48.1472, 11.5733],
    "visitDate": "2015-04-03",
    "country": "Germania",
    "region": "Baviera",
    "province": "M",
    "municipality": "Monaco di Baviera",
    "tags": []
  },
  {
    "id": "museo-galileo",
    "name": "Museo Galileo",
    "description": "",
    "category": "musei",
    "coordinates": [43.7678, 11.2557],
    "visitDate": "2016-02-16",
    "country": "Italia",
    "region": "Toscana",
    "province": "FI",
    "municipality": "Firenze",
    "tags": []
  },
  {
    "id": "museo-di-san-marco",
    "name": "Museo di San Marco",
    "description": "",
    "category": "musei",
    "coordinates": [43.7748, 11.259],
    "visitDate": "2016-02-16",
    "country": "Italia",
    "region": "Toscana",
    "province": "FI",
    "municipality": "Firenze",
    "tags": []
  },
  {
    "id": "museo-dell-opera-del-duomo-di-firenze",
    "name": "Museo dell’Opera del Duomo di Firenze",
    "description": "",
    "category": "musei",
    "coordinates": [43.7723, 11.2558],
    "visitDate": "2016-02-17",
    "country": "Italia",
    "region": "Toscana",
    "province": "FI",
    "municipality": "Firenze",
    "tags": []
  },
  {
    "id": "palazzo-pitti",
    "name": "Palazzo Pitti",
    "description": "",
    "category": "musei",
    "coordinates": [43.7651, 11.25],
    "visitDate": "2016-02-17",
    "country": "Italia",
    "region": "Toscana",
    "province": "FI",
    "municipality": "Firenze",
    "tags": []
  },
  {
    "id": "galleria-degli-uffizi",
    "name": "Galleria degli Uffizi",
    "description": "",
    "category": "musei",
    "coordinates": [43.7687, 11.255],
    "visitDate": "2016-02-18",
    "country": "Italia",
    "region": "Toscana",
    "province": "FI",
    "municipality": "Firenze",
    "tags": []
  },
  {
    "id": "musee-matisse",
    "name": "Musée Matisse",
    "description": "",
    "category": "musei",
    "coordinates": [43.7193, 7.276],
    "visitDate": "2017-04-09",
    "country": "Francia",
    "region": "Provenza-Alpi-Costa Azzurra",
    "province": "06",
    "municipality": "Nizza",
    "tags": []
  },
  {
    "id": "musee-national-marc-chagall",
    "name": "Musée National Marc Chagall",
    "description": "",
    "category": "musei",
    "coordinates": [43.7094, 7.2696],
    "visitDate": "2017-04-09",
    "country": "Francia",
    "region": "Provenza-Alpi-Costa Azzurra",
    "province": "06",
    "municipality": "Nizza",
    "tags": []
  },
  {
    "id": "fondazione-maeght",
    "name": "Fondazione Maeght",
    "description": "",
    "category": "musei",
    "coordinates": [43.7009, 7.1151],
    "visitDate": "2017-04-10",
    "country": "Francia",
    "region": "Provenza-Alpi-Costa Azzurra",
    "province": "06",
    "municipality": "Saint-Paul-de-Vence",
    "tags": []
  },
  {
    "id": "musee-picasso",
    "name": "Musée Picasso",
    "description": "",
    "category": "musei",
    "coordinates": [43.5807, 7.1282],
    "visitDate": "2017-04-10",
    "country": "Francia",
    "region": "Provenza-Alpi-Costa Azzurra",
    "province": "06",
    "municipality": "Antibes",
    "tags": []
  },
  {
    "id": "museo-delle-palafitte-del-lago-di-ledro",
    "name": "Museo delle Palafitte del Lago di Ledro",
    "description": "",
    "category": "musei",
    "coordinates": [45.8736, 10.7597],
    "visitDate": "2017-08-20",
    "country": "Italia",
    "region": "Trentino-Alto Adige",
    "province": "TN",
    "municipality": "Ledro",
    "tags": []
  },
  {
    "id": "centro-visitatori-lago-ampola",
    "name": "Centro Visitatori Lago Ampola",
    "description": "",
    "category": "musei",
    "coordinates": [45.8667, 10.7167],
    "visitDate": "2017-08-22",
    "country": "Italia",
    "region": "Trentino-Alto Adige",
    "province": "TN",
    "municipality": "Ledro",
    "tags": []
  },
  {
    "id": "reptiland",
    "name": "Reptiland Galleria di Scienze Naturali e Centro Erpetologico",
    "description": "",
    "category": "musei",
    "coordinates": [45.885, 10.8397],
    "visitDate": "2017-08-26",
    "country": "Italia",
    "region": "Trentino-Alto Adige",
    "province": "TN",
    "municipality": "Riva del Garda",
    "tags": []
  },
  {
    "id": "museo-di-mineralogia-parma",
    "name": "Museo di Mineralogia",
    "description": "",
    "category": "musei",
    "coordinates": [44.8001, 10.326],
    "visitDate": "2017-10-13",
    "country": "Italia",
    "region": "Emilia-Romagna",
    "province": "PR",
    "municipality": "Parma",
    "tags": []
  },
  {
    "id": "museo-mineralogico-e-naturalistico-di-bormio",
    "name": "Museo Mineralogico e Naturalistico di Bormio",
    "description": "",
    "category": "musei",
    "coordinates": [46.4667, 10.3667],
    "visitDate": "2021-12-04",
    "country": "Italia",
    "region": "Lombardia",
    "province": "SO",
    "municipality": "Bormio",
    "tags": []
  },
  {
    "id": "parco-archeo-natura-di-fiave",
    "name": "Parco Archeo Natura di Fiavé",
    "description": "",
    "category": "musei",
    "coordinates": [46.0036, 10.8428],
    "visitDate": "2022-06-18",
    "country": "Italia",
    "region": "Trentino-Alto Adige",
    "province": "TN",
    "municipality": "Fiavè",
    "tags": []
  },
  {
    "id": "museo-civico-di-todi",
    "name": "Museo Civico Di Todi",
    "description": "",
    "category": "musei",
    "coordinates": [42.7819, 12.4053],
    "visitDate": "2022-12-03",
    "country": "Italia",
    "region": "Umbria",
    "province": "PG",
    "municipality": "Todi",
    "tags": []
  },
  {
    "id": "cisterne-romane-todi",
    "name": "Cisterne Romane",
    "description": "",
    "category": "musei",
    "coordinates": [42.7812, 12.4058],
    "visitDate": "2022-12-03",
    "country": "Italia",
    "region": "Umbria",
    "province": "PG",
    "municipality": "Todi",
    "tags": []
  },
  {
    "id": "museo-archeologico-nazionale-dell-umbria",
    "name": "Museo Archeologico Nazionale dell’Umbria",
    "description": "",
    "category": "musei",
    "coordinates": [43.1097, 12.3914],
    "visitDate": "2022-12-04",
    "country": "Italia",
    "region": "Umbria",
    "province": "PG",
    "municipality": "Perugia",
    "tags": []
  },
  {
    "id": "perugia-sotterranea-area-archeologica",
    "name": "Perugia Sotterranea - Area Archeologica",
    "description": "",
    "category": "musei",
    "coordinates": [43.1121, 12.3888],
    "visitDate": "2022-12-04",
    "country": "Italia",
    "region": "Umbria",
    "province": "PG",
    "municipality": "Perugia",
    "tags": []
  },
  {
    "id": "pozzo-etrusco",
    "name": "Pozzo Etrusco",
    "description": "",
    "category": "musei",
    "coordinates": [43.112, 12.389],
    "visitDate": "2022-12-04",
    "country": "Italia",
    "region": "Umbria",
    "province": "PG",
    "municipality": "Perugia",
    "tags": []
  },
  {
    "id": "museo-regionale-della-ceramica-di-deruta",
    "name": "Museo Regionale della Ceramica di Deruta",
    "description": "",
    "category": "musei",
    "coordinates": [43.0758, 12.4186],
    "visitDate": "2022-12-05",
    "country": "Italia",
    "region": "Umbria",
    "province": "PG",
    "municipality": "Deruta",
    "tags": []
  },
  {
    "id": "pinacoteca-comunale-di-deruta",
    "name": "Pinacoteca Comunale di Deruta",
    "description": "",
    "category": "musei",
    "coordinates": [43.0759, 12.4187],
    "visitDate": "2022-12-05",
    "country": "Italia",
    "region": "Umbria",
    "province": "PG",
    "municipality": "Deruta",
    "tags": []
  },
  {
    "id": "museo-del-tibet-votigno-di-canossa",
    "name": "Museo del Tibet Votigno di Canossa",
    "description": "",
    "category": "musei",
    "coordinates": [44.5767, 10.54],
    "visitDate": "2023-04-22",
    "country": "Italia",
    "region": "Emilia-Romagna",
    "province": "RE",
    "municipality": "Votigno di Canossa",
    "tags": []
  },
  {
    "id": "museo-nazionale-di-canossa",
    "name": "Museo Nazionale di Canossa",
    "description": "",
    "category": "musei",
    "coordinates": [44.5761, 10.5567],
    "visitDate": "2023-04-22",
    "country": "Italia",
    "region": "Emilia-Romagna",
    "province": "RE",
    "municipality": "Canossa",
    "tags": []
  },
  {
    "id": "museo-del-fungo-porcino-di-borgotaro",
    "name": "Museo del Fungo Porcino di Borgotaro",
    "description": "",
    "category": "musei",
    "coordinates": [44.4889, 9.7667],
    "visitDate": "2023-09-17",
    "country": "Italia",
    "region": "Emilia-Romagna",
    "province": "PR",
    "municipality": "Borgo Val di Taro",
    "tags": []
  },
  {
    "id": "museo-del-giocattolo-canneto",
    "name": "Museo del Giocattolo",
    "description": "",
    "category": "musei",
    "coordinates": [45.1522, 10.3842],
    "visitDate": "2023-09-23",
    "country": "Italia",
    "region": "Lombardia",
    "province": "MN",
    "municipality": "Canneto Sull’Oglio",
    "tags": []
  },
  {
    "id": "ecomuseo-delle-valli-oglio-chiese",
    "name": "Ecomuseo delle Valli Oglio - Chiese",
    "description": "",
    "category": "musei",
    "coordinates": [45.1525, 10.3845],
    "visitDate": "2023-09-23",
    "country": "Italia",
    "region": "Lombardia",
    "province": "MN",
    "municipality": "Canneto Sull’Oglio",
    "tags": []
  },
  {
    "id": "museo-geopaleontologico-di-camposilvano",
    "name": "Museo Geopaleontologico di Camposilvano",
    "description": "",
    "category": "musei",
    "coordinates": [45.7667, 11.1667],
    "visitDate": "2023-09-24",
    "country": "Italia",
    "region": "Veneto",
    "province": "VR",
    "municipality": "Camposilvano",
    "tags": []
  },
  {
    "id": "museo-di-storia-naturale-di-verona",
    "name": "Museo di Storia Naturale di Verona",
    "description": "",
    "category": "musei",
    "coordinates": [45.4347, 11.0019],
    "visitDate": "2023-10-05",
    "country": "Italia",
    "region": "Veneto",
    "province": "VR",
    "municipality": "Verona",
    "tags": []
  },
  {
    "id": "museo-di-castelvecchio",
    "name": "Museo di Castelvecchio",
    "description": "",
    "category": "musei",
    "coordinates": [45.44, 10.9877],
    "visitDate": "2023-10-05",
    "country": "Italia",
    "region": "Veneto",
    "province": "VR",
    "municipality": "Verona",
    "tags": []
  },
  {
    "id": "museo-lapidario-maffeiano",
    "name": "Museo Lapidario Maffeiano",
    "description": "",
    "category": "musei",
    "coordinates": [45.4401, 10.988],
    "visitDate": "2023-10-05",
    "country": "Italia",
    "region": "Veneto",
    "province": "VR",
    "municipality": "Verona",
    "tags": []
  },
  {
    "id": "maca-mantova-collezioni-antiche",
    "name": "MACA - Mantova Collezioni Antiche",
    "description": "",
    "category": "musei",
    "coordinates": [45.1595, 10.794],
    "visitDate": "2023-10-22",
    "country": "Italia",
    "region": "Lombardia",
    "province": "MN",
    "municipality": "Mantova",
    "tags": []
  },
  {
    "id": "museo-del-culatello",
    "name": "Museo del Culatello",
    "description": "",
    "category": "musei",
    "coordinates": [45.0139, 10.0903],
    "visitDate": "2023-11-11",
    "country": "Italia",
    "region": "Emilia-Romagna",
    "province": "PR",
    "municipality": "Polesine Parmense",
    "tags": []
  },
  {
    "id": "museo-nazionale-della-montagna",
    "name": "Museo Nazionale della Montagna \"Duca degli Abruzzi\"",
    "description": "",
    "category": "musei",
    "coordinates": [45.0789, 7.7028],
    "visitDate": "2023-11-15",
    "country": "Italia",
    "region": "Piemonte",
    "province": "TO",
    "municipality": "Torino",
    "tags": []
  },
  {
    "id": "museo-della-figurina",
    "name": "Museo della Figurina",
    "description": "",
    "category": "musei",
    "coordinates": [44.6471, 10.9254],
    "visitDate": "2023-12-03",
    "country": "Italia",
    "region": "Emilia-Romagna",
    "province": "MO",
    "municipality": "Modena",
    "tags": []
  },
  {
    "id": "palazzina-dei-giardini",
    "name": "Palazzina dei Giardini",
    "description": "",
    "category": "musei",
    "coordinates": [44.6475, 10.926],
    "visitDate": "2023-12-03",
    "country": "Italia",
    "region": "Emilia-Romagna",
    "province": "MO",
    "municipality": "Modena",
    "tags": []
  },
  {
    "id": "museo-geologico-g-cortesi",
    "name": "Museo Geologico G. Cortesi",
    "description": "",
    "category": "musei",
    "coordinates": [44.85, 9.8667],
    "visitDate": "2024-06-07",
    "country": "Italia",
    "region": "Emilia-Romagna",
    "province": "PC",
    "municipality": "Castell’Arquato",
    "tags": []
  },
  {
    "id": "mumab-museo-mare-antico-e-biodiversita",
    "name": "MuMAB - Museo Mare Antico e Biodiversità",
    "description": "",
    "category": "musei",
    "coordinates": [44.8167, 9.9833],
    "visitDate": "2024-06-07",
    "country": "Italia",
    "region": "Emilia-Romagna",
    "province": "PR",
    "municipality": "Salsomaggiore Terme",
    "tags": []
  },
  {
    "id": "museo-della-battaglia",
    "name": "Museo della Battaglia",
    "description": "",
    "category": "musei",
    "coordinates": [45.4369, 10.5986],
    "visitDate": "2024-06-16",
    "country": "Italia",
    "region": "Lombardia",
    "province": "BS",
    "municipality": "San Martino della Battaglia",
    "tags": []
  },
  {
    "id": "museo-risorgimentale-di-solferino",
    "name": "Museo Risorgimentale di Solferino",
    "description": "",
    "category": "musei",
    "coordinates": [45.3719, 10.5667],
    "visitDate": "2024-06-16",
    "country": "Italia",
    "region": "Lombardia",
    "province": "MN",
    "municipality": "Solferino",
    "tags": []
  },
  {
    "id": "museo-regionale-di-scienze-naturali-efisio-noussan",
    "name": "Museo Regionale di Scienze Naturali Efisio Noussan",
    "description": "",
    "category": "musei",
    "coordinates": [45.7083, 7.2167],
    "visitDate": "2024-07-03",
    "country": "Italia",
    "region": "Valle d'Aosta",
    "province": "AO",
    "municipality": "Saint-Pierre",
    "tags": []
  },
  {
    "id": "maison-bruil",
    "name": "Maison Bruil",
    "description": "",
    "category": "musei",
    "coordinates": [45.7167, 7.3167],
    "visitDate": "2024-07-03",
    "country": "Italia",
    "region": "Valle d'Aosta",
    "province": "AO",
    "municipality": "Introd",
    "tags": []
  },
  {
    "id": "maison-musee-berton",
    "name": "Maison Musée Berton",
    "description": "",
    "category": "musei",
    "coordinates": [45.7167, 6.95],
    "visitDate": "2024-07-04",
    "country": "Italia",
    "region": "Valle d'Aosta",
    "province": "AO",
    "municipality": "La Thuile",
    "tags": []
  },
  {
    "id": "area-megalitica-di-saint-martin-de-corleans",
    "name": "Area Megalitica di Saint-Martin-de-Corléans",
    "description": "",
    "category": "musei",
    "coordinates": [45.7389, 7.3111],
    "visitDate": "2024-07-06",
    "country": "Italia",
    "region": "Valle d'Aosta",
    "province": "AO",
    "municipality": "Aosta",
    "tags": []
  },
  {
    "id": "museo-archeologico-regionale-valdostano",
    "name": "Museo Archeologico Regionale Valdostano",
    "description": "",
    "category": "musei",
    "coordinates": [45.7375, 7.3222],
    "visitDate": "2024-07-06",
    "country": "Italia",
    "region": "Valle d'Aosta",
    "province": "AO",
    "municipality": "Aosta",
    "tags": []
  },
  {
    "id": "criptoportico-forense",
    "name": "Criptoportico Forense",
    "description": "",
    "category": "musei",
    "coordinates": [45.7378, 7.3219],
    "visitDate": "2024-07-06",
    "country": "Italia",
    "region": "Valle d'Aosta",
    "province": "AO",
    "municipality": "Aosta",
    "tags": []
  },
  {
    "id": "chiesa-paleocristiana-di-san-lorenzo",
    "name": "Chiesa Paleocristiana di San Lorenzo",
    "description": "",
    "category": "musei",
    "coordinates": [45.738, 7.322],
    "visitDate": "2024-07-06",
    "country": "Italia",
    "region": "Valle d'Aosta",
    "province": "AO",
    "municipality": "Aosta",
    "tags": []
  },
  {
    "id": "chiostro-romanico-di-sant-orso",
    "name": "Chiostro Romanico di Sant’Orso",
    "description": "",
    "category": "musei",
    "coordinates": [45.74, 7.3267],
    "visitDate": "2024-07-06",
    "country": "Italia",
    "region": "Valle d'Aosta",
    "province": "AO",
    "municipality": "Aosta",
    "tags": []
  },
  {
    "id": "mav-museo-artigianato-valdostano",
    "name": "Mav Museo dell’Artigianato Valdostano di Tradizione",
    "description": "",
    "category": "musei",
    "coordinates": [45.7333, 7.4833],
    "visitDate": "2024-07-07",
    "country": "Italia",
    "region": "Valle d'Aosta",
    "province": "AO",
    "municipality": "Fénis",
    "tags": []
  },
  {
    "id": "centro-visitatori-riserva-naturale-mont-mars",
    "name": "Centro Visitatori Riserva Naturale Regionale del Mont Mars",
    "description": "",
    "category": "musei",
    "coordinates": [45.65, 7.85],
    "visitDate": "2024-07-08",
    "country": "Italia",
    "region": "Valle d'Aosta",
    "province": "AO",
    "municipality": "Fontainemore",
    "tags": []
  },
  {
    "id": "parco-archeologico-neapolis",
    "name": "Parco Archeologico Neapolis",
    "description": "",
    "category": "musei",
    "coordinates": [37.0758, 15.2711],
    "visitDate": "2024-08-11",
    "country": "Italia",
    "region": "Sicilia",
    "province": "SR",
    "municipality": "Siracusa",
    "tags": []
  },
  {
    "id": "museo-del-prosciutto-di-parma",
    "name": "Museo del Prosciutto di Parma",
    "description": "",
    "category": "musei",
    "coordinates": [44.6333, 10.2],
    "visitDate": "2024-09-14",
    "country": "Italia",
    "region": "Emilia-Romagna",
    "province": "PR",
    "municipality": "Langhirano",
    "tags": []
  },
  {
    "id": "museo-del-palazzo-dei-pio",
    "name": "Museo del Palazzo dei Pio",
    "description": "",
    "category": "musei",
    "coordinates": [44.7722, 10.8856],
    "visitDate": "2024-09-22",
    "country": "Italia",
    "region": "Emilia-Romagna",
    "province": "MO",
    "municipality": "Carpi",
    "tags": []
  },
  {
    "id": "museo-della-citta-carpi",
    "name": "Museo della Città",
    "description": "",
    "category": "musei",
    "coordinates": [44.7725, 10.8858],
    "visitDate": "2024-09-22",
    "country": "Italia",
    "region": "Emilia-Romagna",
    "province": "MO",
    "municipality": "Carpi",
    "tags": []
  },
  {
    "id": "museo-al-deportato",
    "name": "Museo al Deportato",
    "description": "",
    "category": "musei",
    "coordinates": [44.7723, 10.8857],
    "visitDate": "2024-09-22",
    "country": "Italia",
    "region": "Emilia-Romagna",
    "province": "MO",
    "municipality": "Carpi",
    "tags": []
  },
  {
    "id": "museo-diocesano-arte-sacra-carpi",
    "name": "Museo Diocesano di Arte Sacra Cardinale Rodolfo Pio",
    "description": "",
    "category": "musei",
    "coordinates": [44.7724, 10.8859],
    "visitDate": "2024-09-22",
    "country": "Italia",
    "region": "Emilia-Romagna",
    "province": "MO",
    "municipality": "Carpi",
    "tags": []
  },
  {
    "id": "museo-storia-naturale-baldo-garda",
    "name": "Museo di Storia Naturale del Baldo e del Garda",
    "description": "",
    "category": "musei",
    "coordinates": [45.7667, 10.8167],
    "visitDate": "2024-09-29",
    "country": "Italia",
    "region": "Veneto",
    "province": "VR",
    "municipality": "Malcesine",
    "tags": []
  },
  {
    "id": "museo-pomposiano",
    "name": "Museo Pomposiano",
    "description": "",
    "category": "musei",
    "coordinates": [44.8333, 12.1833],
    "visitDate": "2024-11-01",
    "country": "Italia",
    "region": "Emilia-Romagna",
    "province": "FE",
    "municipality": "Codigoro",
    "tags": []
  },
  {
    "id": "museo-del-cervo-e-del-bosco-della-mesola",
    "name": "Museo del Cervo e del Bosco della Mesola",
    "description": "",
    "category": "musei",
    "coordinates": [44.9167, 12.2333],
    "visitDate": "2024-11-01",
    "country": "Italia",
    "region": "Emilia-Romagna",
    "province": "FE",
    "municipality": "Mesola",
    "tags": []
  },
  {
    "id": "manifattura-dei-marinati",
    "name": "Manifattura dei Marinati",
    "description": "",
    "category": "musei",
    "coordinates": [44.6833, 12.1833],
    "visitDate": "2024-11-02",
    "country": "Italia",
    "region": "Emilia-Romagna",
    "province": "FE",
    "municipality": "Comacchio",
    "tags": []
  },
  {
    "id": "museo-delta-antico",
    "name": "Museo Delta Antico",
    "description": "",
    "category": "musei",
    "coordinates": [44.69, 12.18],
    "visitDate": "2024-11-02",
    "country": "Italia",
    "region": "Emilia-Romagna",
    "province": "FE",
    "municipality": "Comacchio",
    "tags": []
  },
  {
    "id": "museo-di-casa-romei",
    "name": "Museo di Casa Romei",
    "description": "",
    "category": "musei",
    "coordinates": [44.8356, 11.625],
    "visitDate": "2024-11-03",
    "country": "Italia",
    "region": "Emilia-Romagna",
    "province": "FE",
    "municipality": "Ferrara",
    "tags": []
  },
  {
    "id": "museo-archeologico-nazionale-di-ferrara",
    "name": "Museo Archeologico Nazionale di Ferrara",
    "description": "",
    "category": "musei",
    "coordinates": [44.8375, 11.62],
    "visitDate": "2024-11-03",
    "country": "Italia",
    "region": "Emilia-Romagna",
    "province": "FE",
    "municipality": "Ferrara",
    "tags": []
  },
  {
    "id": "pinacoteca-di-palazzo-dei-diamanti",
    "name": "Pinacoteca di Palazzo dei Diamanti",
    "description": "",
    "category": "musei",
    "coordinates": [44.84, 11.62],
    "visitDate": "2024-11-03",
    "country": "Italia",
    "region": "Emilia-Romagna",
    "province": "FE",
    "municipality": "Ferrara",
    "tags": []
  },
  {
    "id": "casa-di-ludovico-ariosto",
    "name": "Casa di Ludovico Ariosto",
    "description": "",
    "category": "musei",
    "coordinates": [44.8389, 11.6167],
    "visitDate": "2024-11-03",
    "country": "Italia",
    "region": "Emilia-Romagna",
    "province": "FE",
    "municipality": "Ferrara",
    "tags": []
  },
  {
    "id": "muse-museo-delle-scienze",
    "name": "MUSE - Museo delle Scienze",
    "description": "",
    "category": "musei",
    "coordinates": [46.0628, 11.1158],
    "visitDate": "2024-12-15",
    "country": "Italia",
    "region": "Trentino-Alto Adige",
    "province": "TN",
    "municipality": "Trento",
    "tags": []
  },
  {
    "id": "museo-internazionale-delle-torture",
    "name": "Museo Internazionale delle Torture",
    "description": "",
    "category": "musei",
    "coordinates": [44.9333, 9.6833],
    "visitDate": "2025-01-19",
    "country": "Italia",
    "region": "Emilia-Romagna",
    "province": "PC",
    "municipality": "Grazzano Visconti",
    "tags": []
  },
  {
    "id": "mariposa-grazzano",
    "name": "Mariposa",
    "description": "",
    "category": "musei",
    "coordinates": [44.9333, 9.6833],
    "visitDate": "2025-01-19",
    "country": "Italia",
    "region": "Emilia-Romagna",
    "province": "PC",
    "municipality": "Grazzano Visconti",
    "tags": []
  },
  {
    "id": "complesso-monumentale-della-pilotta",
    "name": "Complesso Monumentale della Pilotta",
    "description": "",
    "category": "musei",
    "coordinates": [44.805, 10.325],
    "visitDate": "2025-02-02",
    "country": "Italia",
    "region": "Emilia-Romagna",
    "province": "PR",
    "municipality": "Parma",
    "tags": []
  },
  {
    "id": "museo-archeologico-nazionale-di-parma",
    "name": "Museo Archeologico Nazionale di Parma",
    "description": "",
    "category": "musei",
    "coordinates": [44.805, 10.325],
    "visitDate": "2025-02-02",
    "country": "Italia",
    "region": "Emilia-Romagna",
    "province": "PR",
    "municipality": "Parma",
    "tags": []
  },
  {
    "id": "galleria-nazionale-di-parma",
    "name": "Galleria Nazionale di Parma",
    "description": "",
    "category": "musei",
    "coordinates": [44.805, 10.325],
    "visitDate": "2025-02-02",
    "country": "Italia",
    "region": "Emilia-Romagna",
    "province": "PR",
    "municipality": "Parma",
    "tags": []
  },
  {
    "id": "teatro-farnese",
    "name": "Teatro Farnese",
    "description": "",
    "category": "musei",
    "coordinates": [44.805, 10.325],
    "visitDate": "2025-02-02",
    "country": "Italia",
    "region": "Emilia-Romagna",
    "province": "PR",
    "municipality": "Parma",
    "tags": []
  },
  {
    "id": "biblioteca-palatina",
    "name": "Biblioteca Palatina",
    "description": "",
    "category": "musei",
    "coordinates": [44.805, 10.325],
    "visitDate": "2025-02-02",
    "country": "Italia",
    "region": "Emilia-Romagna",
    "province": "PR",
    "municipality": "Parma",
    "tags": []
  },
  {
    "id": "museo-bodoniano",
    "name": "Museo Bodoniano",
    "description": "",
    "category": "musei",
    "coordinates": [44.805, 10.325],
    "visitDate": "2025-02-02",
    "country": "Italia",
    "region": "Emilia-Romagna",
    "province": "PR",
    "municipality": "Parma",
    "tags": []
  },
  {
    "id": "parco-museo-minerario-del-monte-amiata",
    "name": "Parco Museo Minerario del Monte Amiata",
    "description": "",
    "category": "musei",
    "coordinates": [42.8833, 11.6833],
    "visitDate": "2025-02-01",
    "country": "Italia",
    "region": "Toscana",
    "province": "SI",
    "municipality": "Abbadia San Salvatore",
    "tags": []
  },
  {
    "id": "presepi-dal-mondo",
    "name": "Presepi dal Mondo",
    "description": "",
    "category": "musei",
    "coordinates": [42.9833, 11.8667],
    "visitDate": "2025-02-04",
    "country": "Italia",
    "region": "Toscana",
    "province": "SI",
    "municipality": "Sarteano",
    "tags": []
  }
]