[
  {
    "id": "lagdei",
    "name": "Lagdei",
    "description": "",
    "category": "rifugi",
    "coordinates": [0, 0],
    "visitDate": "2021-08-15",
    "country": "Italia",
    "region": "Emilia-Romagna",
    "province": "PR",
    "municipality": "Bosco",
    "address": "43021 Bosco PR",
    "altitude": 1250
  },
  {
    "id": "mariotti",
    "name": "Mariotti",
    "description": "",
    "category": "rifugi",
    "coordinates": [0, 0],
    "visitDate": "2021-08-15",
    "country": "Italia",
    "region": "Emilia-Romagna",
    "province": "PR",
    "municipality": "Bosco",
    "address": "43021 Bosco PR",
    "altitude": 1507
  },
  {
    "id": "malga-venegiota",
    "name": "Malga Venegiota",
    "description": "",
    "category": "rifugi",
    "coordinates": [0, 0],
    "visitDate": "2021-09-24",
    "country": "Italia",
    "region": "Trentino-Alto Adige",
    "province": "TN",
    "municipality": "Fiera di Primiero",
    "address": "38054 Fiera di Primiero TN",
    "altitude": 1824
  },
  {
    "id": "baita-segantini",
    "name": "Baita Segantini",
    "description": "",
    "category": "rifugi",
    "coordinates": [0, 0],
    "visitDate": "2021-09-24",
    "country": "Italia",
    "region": "Trentino-Alto Adige",
    "province": "TN",
    "municipality": "Passo Rolle",
    "address": "38058 Passo Rolle TN",
    "altitude": 2291
  },
  {
    "id": "pianvallese",
    "name": "Pianvallese",
    "description": "",
    "category": "rifugi",
    "coordinates": [0, 0],
    "visitDate": "2023-07-09",
    "country": "Italia",
    "region": "Emilia-Romagna",
    "province": "RE",
    "municipality": "Villa Minozzo",
    "address": "42030 Villa Minozzo RE",
    "altitude": 1260
  },
  {
    "id": "monte-orasaro",
    "name": "Monte Orasaro",
    "description": "",
    "category": "rifugi",
    "coordinates": [0, 0],
    "visitDate": "2023-07-09",
    "country": "Italia",
    "region": "Emilia-Romagna",
    "province": "RE",
    "municipality": "Monteorsaro",
    "address": "42030 Monteorsaro RE",
    "altitude": 1300
  },
  {
    "id": "chalet-falco-pra-alpesina",
    "name": "Chalet Falco Prà Alpesina",
    "description": "",
    "category": "rifugi",
    "coordinates": [0, 0],
    "visitDate": "2023-08-12",
    "country": "Italia",
    "region": "Trentino-Alto Adige",
    "province": "TN",
    "municipality": "Avio",
    "address": "38063 Avio TN",
    "altitude": 1450
  },
  {
    "id": "citta-di-lissone",
    "name": "Città di Lissone",
    "description": "",
    "category": "rifugi",
    "coordinates": [0, 0],
    "visitDate": "2023-08-19",
    "country": "Italia",
    "region": "Lombardia",
    "province": "BS",
    "municipality": "Saviore dell'Adamello",
    "address": "25040 Saviore dellAdamello BS",
    "altitude": 2017
  },
  {
    "id": "baita-adame",
    "name": "Baita Adamè",
    "description": "",
    "category": "rifugi",
    "coordinates": [0, 0],
    "visitDate": "2023-08-19",
    "country": "Italia",
    "region": "Lombardia",
    "province": "BS",
    "municipality": "Saviore dell'Adamello",
    "address": "25040 Saviore dellAdamello BS",
    "altitude": 2150
  },
  {
    "id": "piano-fiscalina",
    "name": "Piano Fiscalina",
    "description": "",
    "category": "rifugi",
    "coordinates": [0, 0],
    "visitDate": "2023-08-26",
    "country": "Italia",
    "region": "Trentino-Alto Adige",
    "province": "BZ",
    "municipality": "Sesto",
    "address": "39030 Sesto BZ",
    "altitude": 1454
  },
  {
    "id": "fondovalle",
    "name": "Fondovalle",
    "description": "",
    "category": "rifugi",
    "coordinates": [0, 0],
    "visitDate": "2023-08-26",
    "country": "Italia",
    "region": "Trentino-Alto Adige",
    "province": "BZ",
    "municipality": "Sesto",
    "address": "39030 Sesto BZ",
    "altitude": 1548
  },
  {
    "id": "malga-foresta",
    "name": "Malga Foresta",
    "description": "",
    "category": "rifugi",
    "coordinates": [0, 0],
    "visitDate": "2023-08-27",
    "country": "Italia",
    "region": "Trentino-Alto Adige",
    "province": "BZ",
    "municipality": "Braies",
    "address": "39030 Braies BZ",
    "altitude": 1590
  },
  {
    "id": "pratospilla",
    "name": "Pratospilla",
    "description": "",
    "category": "rifugi",
    "coordinates": [0, 0],
    "visitDate": "2023-09-10",
    "country": "Italia",
    "region": "Emilia-Romagna",
    "province": "PR",
    "municipality": "Monchio delle corti",
    "address": "43010 Monchio delle corti PR",
    "altitude": 1350
  },
  {
    "id": "baracchino",
    "name": "Baracchino",
    "description": "",
    "category": "rifugi",
    "coordinates": [0, 0],
    "visitDate": "2023-09-10",
    "country": "Italia",
    "region": "Emilia-Romagna",
    "province": "PR",
    "municipality": "Monchio delle corti",
    "address": "43010 Monchio delle corti PR",
    "altitude": 1341
  },
  {
    "id": "cuneck",
    "name": "Cuneck",
    "description": "",
    "category": "rifugi",
    "coordinates": [0, 0],
    "visitDate": "2023-09-24",
    "country": "Italia",
    "region": "Veneto",
    "province": "VR",
    "municipality": "Velo Veronese",
    "address": "37030 Velo Veronese VR",
    "altitude": 1214
  },
  {
    "id": "bocca-di-selva",
    "name": "Bocca di Selva",
    "description": "",
    "category": "rifugi",
    "coordinates": [0, 0],
    "visitDate": "2023-09-24",
    "country": "Italia",
    "region": "Veneto",
    "province": "VR",
    "municipality": "Bocca di Selva",
    "address": "37021 Loc. Bocca di Selva VR",
    "altitude": 1550
  },
  {
    "id": "bar-bistrot-volare",
    "name": "Bar Bistrot Volare",
    "description": "",
    "category": "rifugi",
    "coordinates": [0, 0],
    "visitDate": "2024-05-26",
    "country": "Italia",
    "region": "Emilia-Romagna",
    "province": "RE",
    "municipality": "Roncolo",
    "address": "42020 Roncolo RE",
    "altitude": 312
  },
  {
    "id": "tita-secchi",
    "name": "Tita Secchi",
    "description": "",
    "category": "rifugi",
    "coordinates": [0, 0],
    "visitDate": "2024-06-22",
    "country": "Italia",
    "region": "Lombardia",
    "province": "BS",
    "municipality": "Breno",
    "address": "25043 Breno BS",
    "altitude": 2367
  },
  {
    "id": "tetras-lyre",
    "name": "Tetras Lyre",
    "description": "",
    "category": "rifugi",
    "coordinates": [0, 0],
    "visitDate": "2024-07-02",
    "country": "Italia",
    "region": "Valle d'Aosta",
    "province": "AO",
    "municipality": "Pont",
    "address": "11010 Pont AO",
    "altitude": 2000
  },
  {
    "id": "vittorio-emanuele-ii",
    "name": "Vittorio Emanuele II",
    "description": "",
    "category": "rifugi",
    "coordinates": [0, 0],
    "visitDate": "2024-07-02",
    "country": "Italia",
    "region": "Valle d'Aosta",
    "province": "AO",
    "municipality": "Valsavarenche",
    "address": "11010 Valsavarenche AO",
    "altitude": 2735
  },
  {
    "id": "federico-chabod",
    "name": "Federico Chabod",
    "description": "",
    "category": "rifugi",
    "coordinates": [0, 0],
    "visitDate": "2024-07-02",
    "country": "Italia",
    "region": "Valle d'Aosta",
    "province": "AO",
    "municipality": "Valsavarenche",
    "address": "11010 Valsavarenche AO",
    "altitude": 2710
  },
  {
    "id": "pavillon",
    "name": "Pavillon",
    "description": "",
    "category": "rifugi",
    "coordinates": [0, 0],
    "visitDate": "2024-07-04",
    "country": "Italia",
    "region": "Valle d'Aosta",
    "province": "AO",
    "municipality": "Courmayeur",
    "address": "11013 Courmayeur AO",
    "altitude": 2173
  },
  {
    "id": "torino",
    "name": "Torino",
    "description": "",
    "category": "rifugi",
    "coordinates": [0, 0],
    "visitDate": "2024-07-04",
    "country": "Italia",
    "region": "Valle d'Aosta",
    "province": "AO",
    "municipality": "Courmayeur",
    "address": "11013 Courmayeur AO",
    "altitude": 3375
  },
  {
    "id": "l-ermitage-chamois",
    "name": "L’Ermitage Chamois",
    "description": "",
    "category": "rifugi",
    "coordinates": [0, 0],
    "visitDate": "2024-07-05",
    "country": "Italia",
    "region": "Valle d'Aosta",
    "province": "AO",
    "municipality": "Chamois",
    "address": "11020 Chamois AO",
    "altitude": 1927
  },
  {
    "id": "revolto",
    "name": "Revolto",
    "description": "",
    "category": "rifugi",
    "coordinates": [0, 0],
    "visitDate": "2024-08-15",
    "country": "Italia",
    "region": "Veneto",
    "province": "VR",
    "municipality": "Selva di Progno",
    "address": "37030 Selva di Progno VR",
    "altitude": 1336
  },
  {
    "id": "passo-pertica",
    "name": "Passo Pertica",
    "description": "",
    "category": "rifugi",
    "coordinates": [0, 0],
    "visitDate": "2024-08-15",
    "country": "Italia",
    "region": "Trentino-Alto Adige",
    "province": "TN",
    "municipality": "Ala",
    "address": "38061 Ala TN",
    "altitude": 1530
  },
  {
    "id": "fraccaroli",
    "name": "Fraccaroli",
    "description": "",
    "category": "rifugi",
    "coordinates": [0, 0],
    "visitDate": "2024-08-15",
    "country": "Italia",
    "region": "Trentino-Alto Adige",
    "province": "TN",
    "municipality": "Ala",
    "address": "38061 Ala TN",
    "altitude": 2238
  },
  {
    "id": "scalorbi",
    "name": "Scalorbi",
    "description": "",
    "category": "rifugi",
    "coordinates": [0, 0],
    "visitDate": "2024-08-15",
    "country": "Italia",
    "region": "Trentino-Alto Adige",
    "province": "TN",
    "municipality": "Ala",
    "address": "38061 Ala TN",
    "altitude": 1767
  }
]